_id,bathroom_num,bedroom_num,bizcircle_name,city,dist,distance,frame_orientation,hall_num,house_tag,house_title,latitude,layout,longitude,m_url,rent_area,rent_price_listing,rent_price_unit,resblock_name,type
5c714363397be4c5251a3ded,2,3,上地,北京,海淀,,南 北,2,精装 集中供暖 双卫生间,整租 · 上地西里二层三居 自住出租 随时入住采光好 无遮挡,40.039,3室2厅2卫,116.317831,https://m.lianjia.com/chuzu/bj/zufang/BJ2135934725586690048.html,137,15000,元/月,上地西里,整租
5c7148e6397be4c5251a583d,1,2,北大地,北京,丰台,,南 北,1,集中供暖,整租 · 丰台北大地电报局街家具家电齐全南北向两居,39.856662,2室1厅1卫,116.292291,https://m.lianjia.com/chuzu/bj/zufang/BJ2101229402263126016.html,57,4500,元/月,电报局街,整租
5c71321e397be4c5251a0b46,1,1,燕莎,北京,朝阳,788,北,1,近地铁 精装 集中供暖,整租 · 远洋新干线 1室1厅 10500元,39.963231,1室1厅1卫,116.46615,https://m.lianjia.com/chuzu/bj/zufang/BJ2163171108206428160.html,56,10500,元/月,远洋新干线,整租
5c712721397be4c52519fc09,1,1,阜成门,北京,西城,886,东,1,近地铁 集中供暖 随时看房,南露园 1室1厅 5600元,39.930655,1室1厅1卫,116.348521,https://m.lianjia.com/chuzu/bj/zufang/BJ2173622775712063488.html,43,5600,元/月,南露园,整租
5c7123bd397be4c52519f7af,1,2,和平里,北京,朝阳,779,东 南,1,近地铁 集中供暖,和平里东街15号院 2室1厅 6300元,39.957079,2室1厅1卫,116.431393,https://m.lianjia.com/chuzu/bj/zufang/BJ2158698783390056448.html,56,6300,元/月,和平里东街15号院,整租
5c72ae43397be4c5251e2d7e,1,2,奥林匹克公园,北京,朝阳,1139,南 北,2,精装 随时看房,整租 · 澳林春天四期 南北通透精装两居室 距奥森一路之隔,40.01826,2室2厅1卫,116.380727,https://m.lianjia.com/chuzu/bj/zufang/BJ2158677644206948352.html,111,12000,元/月,澳林春天四期,整租
5c7158ce397be4c5251a9d5c,1,2,顺义城,北京,顺义,744,南 北,1,近地铁 集中供暖 随时看房,整租 · 义宾北区 2室1厅 3600元,40.139222,2室1厅1卫,116.655265,https://m.lianjia.com/chuzu/bj/zufang/BJ2169945348712169472.html,65,3600,元/月,义宾北区,整租
5c713804397be4c5251a1d1a,3,3,农展馆,北京,朝阳,579,西南 东北,2,近地铁 集中供暖 随时看房,九号公寓  精装修 三居室 通透 人车分流,39.945153,3室2厅3卫,116.48049,https://m.lianjia.com/chuzu/bj/zufang/BJ2160741344963215360.html,272,32000,元/月,九号公寓,整租
5c714d5f397be4c5251a6de9,1,2,玉桥,北京,通州,,南 北,1,随时看房,京艺天朗雅园 2室1厅 5000元,39.896165,2室1厅1卫,116.695318,https://m.lianjia.com/chuzu/bj/zufang/BJ2139056799524069376.html,89,5000,元/月,京艺天朗雅园,整租
5c7157f6397be4c5251a9907,1,1,亦庄,北京,亦庄开发区,204,西,1,近地铁 集中供暖 随时看房,林肯公园 2房间1卫 5200元,39.810115,2房间1卫,116.497474,https://m.lianjia.com/chuzu/bj/zufang/BJ2163171843946070016.html,49,5200,元/月,林肯公园,整租
5c714629397be4c5251a4ade,1,2,蒲黄榆,北京,丰台,401,南 北,1,近地铁 集中供暖 随时看房,蒲安西里 2室1厅 5500元,39.870396,2室1厅1卫,116.422746,https://m.lianjia.com/chuzu/bj/zufang/BJ2191940599660421120.html,62,5500,元/月,蒲安西里,整租
5c7133d5397be4c5251a1190,1,2,首都机场,北京,朝阳,,南 北,1,集中供暖,南平里 2室1厅 4000元,40.051164,2室1厅1卫,116.605035,https://m.lianjia.com/chuzu/bj/zufang/BJ2194002345753583616.html,59,4000,元/月,南平里,整租
5c711bd1397be4c52519f2cb,1,1,广渠门,北京,朝阳,467,北,1,近地铁 精装 集中供暖,整租 · 保利蔷薇 1室1厅 6600元,39.89667,1室1厅1卫,116.442531,https://m.lianjia.com/chuzu/bj/zufang/BJ2113028646007472128.html,49,6600,元/月,保利蔷薇,整租
5c72b502397be4c5251e3e44,1,2,和平里,北京,朝阳,314,南,1,近地铁 精装 集中供暖 随时看房,整租 · 和平街十四区 2室1厅 8000元,39.966931,2室1厅1卫,116.433791,https://m.lianjia.com/chuzu/bj/zufang/BJ2173091103488876544.html,56,8000,元/月,和平街十四区,整租
5c71252c397be4c52519f984,1,1,六铺炕,北京,西城,850,南 北,1,近地铁 新上 随时看房,德胜门，六铺炕，正规一室一厅，干净整洁,39.95917,1室1厅1卫,116.387037,https://m.lianjia.com/chuzu/bj/zufang/BJ2197061036543049728.html,51,6500,元/月,教场口6号院,整租
5c714780397be4c5251a5175,1,2,北京南站,北京,丰台,826,南 北,1,近地铁 集中供暖,翠林三里 2室1厅 5500元,39.863807,2室1厅1卫,116.374008,https://m.lianjia.com/chuzu/bj/zufang/BJ2136006039022346240.html,62,5500,元/月,翠林三里,整租
5c71447d397be4c5251a4329,1,1,双榆树,北京,海淀,425,南 北,1,近地铁 精装 集中供暖 新上 随时看房,整租 ·  精装南向一居室，第一次出租，格局方正明亮，干净整洁,39.977829,1室1厅1卫,116.329472,https://m.lianjia.com/chuzu/bj/zufang/BJ2196141877815164928.html,37,6500,元/月,双榆树北里,整租
5c71563f397be4c5251a9257,2,4,大兴其它,北京,大兴,,南 北,2,集中供暖,格林云墅 4室2厅 4500元,39.714557,4室2厅2卫,116.407943,https://m.lianjia.com/chuzu/bj/zufang/BJ2135444498372116480.html,138,4500,元/月,格林云墅,整租
5c715803397be4c5251a994d,1,3,长阳,北京,房山,,南 北,1,精装 集中供暖 随时看房,整租 · 首创新悦都 3室1厅 4000元,39.778845,3室1厅1卫,116.192392,https://m.lianjia.com/chuzu/bj/zufang/BJ2163171600340623360.html,88,4000,元/月,首创新悦都,整租
5c71419e397be4c5251a3530,1,3,小西天,北京,海淀,,南 西,2,精装 集中供暖,整租 · 红联北村 3室2厅 9500元,39.960581,3室2厅1卫,116.365812,https://m.lianjia.com/chuzu/bj/zufang/BJ2191798570435485696.html,84,9500,元/月,红联北村,整租
5c714311397be4c5251a3c5a,1,2,清河,北京,海淀,,南 北,1,集中供暖 随时看房,整租 ·   宝盛里正规两居室 拎包入住 随时可看,40.042102,2室1厅1卫,116.37555,https://m.lianjia.com/chuzu/bj/zufang/BJ2178698565135122432.html,72,5700,元/月,宝盛里,整租
5c715e5a397be4c5251aa879,1,2,滨河西区,北京,门头沟,,南 北,2,新上 随时看房,倚山嘉园 2室2厅 3000元,39.934504,2室2厅1卫,116.119651,https://m.lianjia.com/chuzu/bj/zufang/BJ2163164671182643200.html,100,3000,元/月,倚山嘉园,整租
5c714923397be4c5251a5962,1,1,马家堡,北京,丰台,2,北,0,近地铁 集中供暖 随时看房,整租 · 地铁4号线公益西桥站房屋 业主诚心出租,39.842419,1房间1卫,116.37785,https://m.lianjia.com/chuzu/bj/zufang/BJ2152780715672993792.html,54,5200,元/月,东亚三环,整租
5c7145fe397be4c5251a4a18,1,2,蒲黄榆,北京,丰台,421,西 北,1,近地铁 精装 集中供暖 随时看房,整租 · 刘家窑东里精装修两居室，诚心出租，看房方便,39.867648,2室1厅1卫,116.426617,https://m.lianjia.com/chuzu/bj/zufang/BJ2155592667436679168.html,62,5800,元/月,刘家窑东里,整租
5c714ff0397be4c5251a7a74,1,2,回龙观,北京,昌平,652,南 北,1,近地铁 新上,整租 · 龙回苑 2室1厅 6000元,40.093821,2室1厅1卫,116.351869,https://m.lianjia.com/chuzu/bj/zufang/BJ2196802514400321536.html,155,6000,元/月,龙回苑,整租
5c7128a2397be4c52519fe06,1,2,阜成门,北京,西城,3,东 西,1,近地铁 集中供暖 随时看房,整租 ·   展览馆路，干净便宜两居，楼层低，适合一家人,39.931197,2室1厅1卫,116.351337,https://m.lianjia.com/chuzu/bj/zufang/BJ2169280174947319808.html,65,7500,元/月,展览路,整租
5c714896397be4c5251a56b3,1,2,北大地,北京,丰台,,东 南 西,1,精装 集中供暖 随时看房,整租 ·   北大地福顺里正规两居室看房随时，拎包入住,39.853268,2室1厅1卫,116.287131,https://m.lianjia.com/chuzu/bj/zufang/BJ2164344463600648192.html,82,6000,元/月,福顺里,整租
5c711af3397be4c52519f1af,1,3,建国门内,北京,东城,375,东 西,1,近地铁 集中供暖 随时看房,东堂子胡同 3室1厅 11000元,39.920429,3室1厅1卫,116.432287,https://m.lianjia.com/chuzu/bj/zufang/BJ2148583357431693312.html,67,11000,元/月,东堂子胡同,整租
5c71517f397be4c5251a81fc,2,3,北七家,北京,昌平,,南 北,2,集中供暖 双卫生间 随时看房,整租 · 北亚花园 三室两厅 家具家电齐全 看房随时 5000元,40.135623,3室2厅2卫,116.428411,https://m.lianjia.com/chuzu/bj/zufang/BJ2157857597712515072.html,130,4800,元/月,北亚花园,整租
5c715e4b397be4c5251aa821,1,3,滨河西区,北京,门头沟,,南 北,1,集中供暖 新上,整租 · 绮霞苑 3室1厅 5500元,39.939762,3室1厅1卫,116.121964,https://m.lianjia.com/chuzu/bj/zufang/BJ2191780242442420224.html,117,5500,元/月,绮霞苑,整租
5c71491a397be4c5251a593b,2,3,丰台其它,北京,丰台,496,南 北,1,近地铁 精装 集中供暖 双卫生间,整租 · 丰台区西山甲一号 精装空房三居两卫 看房提前约,39.866759,3室1厅2卫,116.193066,https://m.lianjia.com/chuzu/bj/zufang/BJ2148485351436451840.html,115,7500,元/月,西山甲一号,整租
5c715847397be4c5251a9a7d,3,4,亦庄,北京,亦庄开发区,783,南 北,2,集中供暖,整租 · 境界 4室2厅 20000元,39.80248,4室2厅3卫,116.492288,https://m.lianjia.com/chuzu/bj/zufang/BJ2125935984729669632.html,211,20000,元/月,境界,整租
5c715d63397be4c5251aa5bd,1,3,良乡,北京,房山,,南 北,1,精装 集中供暖,整租 ·   文化路社区 四层 三居 业主诚租,39.741485,3室1厅1卫,116.150848,https://m.lianjia.com/chuzu/bj/zufang/BJ2165692920299266048.html,68,4000,元/月,文化路社区,整租
5c71530c397be4c5251a8978,1,2,高米店南,北京,大兴,,南 北,1,精装 集中供暖,整租 ·   金地仰山 自如装修两居 精装全齐 拎包入住随时看房,39.770087,2室1厅1卫,116.318055,https://m.lianjia.com/chuzu/bj/zufang/BJ2191926611387875328.html,87,5200,元/月,金地仰山,整租
5c72b6b5397be4c5251e42a0,1,1,劲松,北京,朝阳,136,北,0,近地铁 随时看房,富顿办公开间  劲松地铁口  诚意出租,39.891382,1室0厅1卫,116.469439,https://m.lianjia.com/chuzu/bj/zufang/BJ2171053168409190400.html,38,6200,元/月,富顿,整租
5c712934397be4c52519fec2,1,2,马甸,北京,朝阳,474,南,1,近地铁 集中供暖 新上,整租 · 裕中西里 2室1厅 7500元,39.978742,2室1厅1卫,116.39145,https://m.lianjia.com/chuzu/bj/zufang/BJ2197673494677037056.html,50,7500,元/月,裕中西里,整租
5c71409a397be4c5251a302e,1,2,小西天,北京,海淀,807,南,1,近地铁 集中供暖 随时看房,志强北园 2室1厅 4200元,39.958962,2室1厅1卫,116.372382,https://m.lianjia.com/chuzu/bj/zufang/BJ2163792109013049344.html,53,4200,元/月,志强北园,整租
5c712469397be4c52519f888,1,1,东直门,北京,朝阳,604,南,1,近地铁 集中供暖 新上,万国城MOMA 1室1厅 15000元,39.954789,1室1厅1卫,116.444857,https://m.lianjia.com/chuzu/bj/zufang/BJ2195542097870987264.html,91,15000,元/月,万国城MOMA,整租
5c72b02e397be4c5251e3289,1,2,常营,北京,朝阳,469,南 北,1,近地铁 新上,北辰福第二号院 2室1厅 8000元,39.936064,2室1厅1卫,116.608355,https://m.lianjia.com/chuzu/bj/zufang/BJ2193270512208322560.html,87,8000,元/月,北辰福第二号院,整租
5c72b532397be4c5251e3ea7,1,1,欢乐谷,北京,朝阳,241,西,1,近地铁 集中供暖 新上,整租 ·   华侨城诚意出租一居室，看房方便，随时约看,39.874885,1室1厅1卫,116.509448,https://m.lianjia.com/chuzu/bj/zufang/BJ2194745422953070592.html,64,7200,元/月,北京华侨城1号院,整租
5c714f55397be4c5251a776d,1,1,九棵树(家乐福),北京,通州,672,南,1,近地铁 集中供暖,整租 · 蓝调沙龙东区 1室1厅 4300元,39.8932,1室1厅1卫,116.658104,https://m.lianjia.com/chuzu/bj/zufang/BJ2193471902092640256.html,61,4300,元/月,蓝调沙龙东区,整租
5c715d61397be4c5251aa5b6,1,2,良乡,北京,房山,,南 北,1,集中供暖 随时看房,整租 ·   中楼层 两居室 家具家电齐全，可随时入住,39.742294,2室1厅1卫,116.15082,https://m.lianjia.com/chuzu/bj/zufang/BJ2164457693132365824.html,59,2200,元/月,北关东路社区,整租
5c714980397be4c5251a5b38,2,2,马家堡,北京,丰台,804,南,1,近地铁 集中供暖,蓝光云鼎 3房间2卫 9000元 复式,39.841379,3房间2卫,116.385769,https://m.lianjia.com/chuzu/bj/zufang/BJ2138420316601589760.html,54,9000,元/月,蓝光云鼎,整租
5c72b6a6397be4c5251e426e,1,2,劲松,北京,朝阳,160,南 西,1,近地铁 精装 集中供暖 随时看房,整租 ·   劲松精装两居    新装修木地板,39.88768,2室1厅1卫,116.472064,https://m.lianjia.com/chuzu/bj/zufang/BJ2166584132807958528.html,62,6500,元/月,农光里,整租
5c713145397be4c5251a080b,1,2,华威桥,北京,朝阳,724,东 西,1,近地铁 精装 集中供暖 随时看房,整租 · 南新园小区板楼东西通透两居室，精装修，随时能住,39.874867,2室1厅1卫,116.481385,https://m.lianjia.com/chuzu/bj/zufang/BJ2090958140790284288.html,69,6200,元/月,南新园,整租
5c72b8e4397be4c5251e4809,1,3,石佛营,北京,朝阳,,西北,1,集中供暖 随时看房,整租 · 日月东华 3室1厅 9000元,39.938707,3室1厅1卫,116.511523,https://m.lianjia.com/chuzu/bj/zufang/BJ2150655489493975040.html,122,9000,元/月,日月东华,整租
5c714443397be4c5251a420b,1,2,皂君庙,北京,海淀,,南 北,1,精装 集中供暖,整租 · 皂君庙14号院精装两居室 看房方便 拎包入住,39.966944,2室1厅1卫,116.344572,https://m.lianjia.com/chuzu/bj/zufang/BJ2136763408177954816.html,75,9000,元/月,皂君庙14号院,整租
5c7143e6397be4c5251a405a,2,3,五棵松,北京,海淀,1036,南 北,1,精装 集中供暖 双卫生间 随时看房,整租 · 紫金长安 3室1厅 22000元,39.923448,3室1厅2卫,116.289102,https://m.lianjia.com/chuzu/bj/zufang/BJ2127279550584340480.html,159,22000,元/月,紫金长安,整租
5c712e00397be4c5251a0220,1,1,六铺炕,北京,西城,,东,1,集中供暖,盛晖嘉园 1室1厅 7800元,39.965854,1室1厅1卫,116.388606,https://m.lianjia.com/chuzu/bj/zufang/BJ2166359427450404864.html,62,7800,元/月,盛晖嘉园,整租
5c71376c397be4c5251a1bad,1,1,管庄,北京,朝阳,568,南,1,近地铁 精装 集中供暖 随时看房,整租 ·   管庄地铁 集中供暖 拎包入住 看房方便,39.919667,1室1厅1卫,116.603501,https://m.lianjia.com/chuzu/bj/zufang/BJ2153545642000261120.html,55,4700,元/月,京通苑,整租
5c714c13397be4c5251a67a1,1,1,临河里,北京,通州,,南,1,集中供暖 随时看房,久居雅园正规南向一居室  看房随时,39.875612,1室1厅1卫,116.676119,https://m.lianjia.com/chuzu/bj/zufang/BJ2190493835237531648.html,67,3800,元/月,久居雅园,整租
5c715615397be4c5251a91d2,1,1,黄村中,北京,大兴,331,北,0,近地铁 集中供暖,清澄名苑北区 1室0厅 3700元,39.744008,1室0厅1卫,116.334907,https://m.lianjia.com/chuzu/bj/zufang/BJ2163605070468890624.html,47,3700,元/月,清澄名苑北区,整租
5c7159d6397be4c5251a9ff2,1,3,顺义城,北京,顺义,,南 北,1,精装 集中供暖,整租 · 石园南区，精装3居，拎包入住，业主诚租,40.113345,3室1厅1卫,116.668841,https://m.lianjia.com/chuzu/bj/zufang/BJ2105049156149592064.html,100,4000,元/月,石园南区,整租
5c712328397be4c52519f703,5,4,工体,北京,朝阳,712,南 北,2,近地铁 精装 集中供暖,整租 · 海晟名苑南区高楼层南北通透四居,39.94387,4室2厅5卫,116.447783,https://m.lianjia.com/chuzu/bj/zufang/BJ2151190663155425280.html,243,42000,元/月,海晟名苑南区,整租
5c714a55397be4c5251a5f27,1,2,鲁谷,北京,石景山,636,西北,1,近地铁 集中供暖 新上 随时看房,整租 · 远景阁 明厨明卫两居室出租 看房随时,39.906426,2室1厅1卫,116.247008,https://m.lianjia.com/chuzu/bj/zufang/BJ2196131550188273664.html,101,8000,元/月,远洋山水,整租
5c7159fb397be4c5251aa007,1,3,李桥,北京,顺义,,南 北,1,随时看房,整租 · 樱花园一区三居室，双卧朝南&amp;middot;&amp;middot;,40.031531,3室1厅1卫,116.636725,https://m.lianjia.com/chuzu/bj/zufang/BJ2116680641666875392.html,103,3000,元/月,樱花园一区,整租
5c714dc7397be4c5251a6fe3,1,2,九棵树(家乐福),北京,通州,,南 北,2,集中供暖 随时看房,靓景明居 2室2厅 5200元,39.889841,2室2厅1卫,116.643924,https://m.lianjia.com/chuzu/bj/zufang/BJ2173603411516194816.html,109,5200,元/月,靓景明居,整租
5c714108397be4c5251a3257,1,2,军博,北京,海淀,437,南 北,1,近地铁 集中供暖,水科院 2室1厅 7200元,39.915591,2室1厅1卫,116.337752,https://m.lianjia.com/chuzu/bj/zufang/BJ2115183990075039744.html,56,7200,元/月,水科院,整租
5c71432c397be4c5251a3cdb,0,1,中关村,北京,海淀,,西,1,,世纪科贸大厦 1室1厅 15000元,39.990459,1室1厅0卫,116.340636,https://m.lianjia.com/chuzu/bj/zufang/BJ2193334276551360512.html,80,15000,元/月,世纪科贸大厦,整租
5c7159a9397be4c5251a9f65,1,3,顺义城,北京,顺义,,南 北,1,集中供暖 随时看房,整租 ·   裕龙四区，正规三居室，可拎包入住,40.127539,3室1厅1卫,116.678491,https://m.lianjia.com/chuzu/bj/zufang/BJ2171703075251683328.html,106,5000,元/月,裕龙四区,整租
5c715098397be4c5251a7d8f,1,3,东关,北京,昌平,,南 北,1,集中供暖 随时看房,整租 · 京科苑 南北通透三居室 生活所需齐全 随时看房,40.216336,3室1厅1卫,116.254212,https://m.lianjia.com/chuzu/bj/zufang/BJ2133196810284433408.html,106,4700,元/月,京科苑,整租
5c7134ff397be4c5251a15b7,2,3,奥林匹克公园,北京,朝阳,295,西南,2,近地铁 精装 双卫生间 随时看房,整租 · 天畅园 3室2厅 17000元,40.03926,3室2厅2卫,116.422621,https://m.lianjia.com/chuzu/bj/zufang/BJ2085246104190066688.html,183,17000,元/月,天畅园,整租
5c715d31397be4c5251aa560,1,1,良乡,北京,房山,505,北,1,近地铁 集中供暖 随时看房,整租 · 近地铁   出行方便     家具齐全 跃层,39.728172,2房间1卫,116.175752,https://m.lianjia.com/chuzu/bj/zufang/BJ2146886394847428608.html,31,2600,元/月,旭辉E天地,整租
5c72b442397be4c5251e3c65,3,2,工体,北京,朝阳,821,东北,1,近地铁 精装 集中供暖 随时看房,整租 · 屯三里 3房间3卫 30000元 跃层,39.94065,3房间3卫,116.451076,https://m.lianjia.com/chuzu/bj/zufang/BJ2148294161931960320.html,88,30000,元/月,屯三里,整租
5c715d88397be4c5251aa61e,1,2,长阳,北京,房山,353,南 西,1,近地铁 集中供暖,首开熙悦广场 3房间1卫 5000元,39.767727,3房间1卫,116.21711,https://m.lianjia.com/chuzu/bj/zufang/BJ2091965637055488000.html,78,5000,元/月,首开熙悦广场,整租
5c714a76397be4c5251a5fd2,1,1,杨庄,北京,石景山,1044,东,1,近地铁 集中供暖 随时看房,整租 · 华信大厦宿舍 1室1厅 4000元,39.927906,1室1厅1卫,116.195584,https://m.lianjia.com/chuzu/bj/zufang/BJ2126623791126945792.html,49,4000,元/月,华信大厦宿舍,整租
5c712d1e397be4c5251a00f2,1,1,广安门,北京,西城,681,西,0,近地铁 集中供暖 随时看房,整租 ·   荣丰复式单层出租 独立厨卫 地铁7号线达官营,39.900529,1室0厅1卫,116.343245,https://m.lianjia.com/chuzu/bj/zufang/BJ2181123837788700672.html,38,4000,元/月,荣丰2008,整租
5c72b02d397be4c5251e3283,2,3,常营,北京,朝阳,714,南 北,2,精装 集中供暖 双卫生间,整租 · 万象新天天际高尔夫 3室2厅 13000元,39.937451,3室2厅2卫,116.600168,https://m.lianjia.com/chuzu/bj/zufang/BJ2192589485777362944.html,169,13000,元/月,万象新天天际高尔夫,整租
5c72b6b2397be4c5251e4298,1,3,劲松,北京,朝阳,717,西北,1,近地铁 精装 集中供暖 随时看房,整租 · 劲松九区 户型方正三居室 精装修 随时入住,39.893046,3室1厅1卫,116.452221,https://m.lianjia.com/chuzu/bj/zufang/BJ2157910718924455936.html,74,8000,元/月,劲松九区,整租
5c712d3c397be4c5251a0117,1,1,白纸坊,北京,西城,,东 南,1,精装 新上,整租 · 恬心家园 1室1厅 6000元,39.884305,1室1厅1卫,116.363739,https://m.lianjia.com/chuzu/bj/zufang/BJ2197807644197265408.html,64,6000,元/月,恬心家园,整租
5c72b62d397be4c5251e4143,2,2,酒仙桥,北京,朝阳,478,南 北,1,近地铁 精装 集中供暖 双卫生间,整租 · 阳光上东四期安徒生花园高层观景房,39.97146,2室1厅2卫,116.490525,https://m.lianjia.com/chuzu/bj/zufang/BJ2163613717261467648.html,169,22000,元/月,阳光上东,整租
5c7137d3397be4c5251a1ca4,1,1,亚运村,北京,朝阳,188,北,1,近地铁 集中供暖 随时看房,大屯里小区 1室1厅 7500元,40.014025,1室1厅1卫,116.422761,https://m.lianjia.com/chuzu/bj/zufang/BJ2158387570311446528.html,71,7500,元/月,大屯里小区,整租
5c7155a0397be4c5251a907f,1,1,天宫院,北京,大兴,478,西,1,近地铁 集中供暖 随时看房,熙兆大厦 2房间1卫 3700元,39.680682,2房间1卫,116.325616,https://m.lianjia.com/chuzu/bj/zufang/BJ2169942578148425728.html,47,3700,元/月,熙兆大厦,整租
5c7156f2397be4c5251a9466,1,1,亦庄,北京,亦庄开发区,1036,东,1,近地铁 集中供暖 随时看房,东晶国际 1室1厅 4300元,39.805889,1室1厅1卫,116.500382,https://m.lianjia.com/chuzu/bj/zufang/BJ2191913851333640192.html,50,4300,元/月,东晶国际,整租
5c713fe3397be4c5251a2c96,1,1,清河,北京,海淀,853,南,1,近地铁 精装 随时看房,整租 ·   高巢小区装修温馨的开间，随时入住，靠谱出租,40.036611,1室1厅1卫,116.364987,https://m.lianjia.com/chuzu/bj/zufang/BJ2169431353811009536.html,52,5200,元/月,高巢,整租
5c714a5e397be4c5251a5f57,1,1,八角,北京,石景山,1018,南,1,近地铁 集中供暖 随时看房,八角北路 1室1厅 4000元,39.921408,1室1厅1卫,116.203052,https://m.lianjia.com/chuzu/bj/zufang/BJ2192769518332821504.html,37,4000,元/月,八角北路,整租
5c7146d7397be4c5251a4e2d,1,2,蒲黄榆,北京,丰台,320,南,1,近地铁 集中供暖 随时看房,整租 · 刘家窑南里 2室1厅 5200元,39.867392,2室1厅1卫,116.423312,https://m.lianjia.com/chuzu/bj/zufang/BJ2163171728745046016.html,50,5200,元/月,刘家窑南里,整租
5c72b517397be4c5251e3e6e,1,2,和平里,北京,朝阳,642,南,2,近地铁 集中供暖,东土城路九号院简装两居室格局方正采光好,39.958894,2室2厅1卫,116.43823,https://m.lianjia.com/chuzu/bj/zufang/BJ2179421473855512576.html,79,8500,元/月,东土城路9号院,整租
5c714c21397be4c5251a67df,1,1,果园,北京,通州,1144,北,1,精装 集中供暖 随时看房,整租 · 巴克寓所 1室1厅 4500元,39.893536,1室1厅1卫,116.645523,https://m.lianjia.com/chuzu/bj/zufang/BJ2192604424361754624.html,65,4500,元/月,巴克寓所,整租
5c713147397be4c5251a0811,1,1,亚运村,北京,朝阳,126,南,1,近地铁 集中供暖,整租 · 慧忠里 1室1厅 6200元,40.003413,1室1厅1卫,116.409266,https://m.lianjia.com/chuzu/bj/zufang/BJ2193222832903954432.html,46,6200,元/月,慧忠里,整租
5c7146de397be4c5251a4e47,1,2,马家堡,北京,丰台,940,南 北,1,近地铁 集中供暖 随时看房,整租 · 西马金润一区 2室1厅 5300元,39.843591,2室1厅1卫,116.391411,https://m.lianjia.com/chuzu/bj/zufang/BJ2164211250274779136.html,76,5300,元/月,西马金润一区,整租
5c71504f397be4c5251a7c34,2,4,天通苑,北京,昌平,,南 北,3,精装 集中供暖 双卫生间 随时看房,整租 · 天通苑北三区 4室3厅 10200元 跃层,40.082372,4室3厅2卫,116.439341,https://m.lianjia.com/chuzu/bj/zufang/BJ2160647169424490496.html,108,10200,元/月,天通苑北三区,整租
5c712fe0397be4c5251a0495,1,2,广安门,北京,西城,,南 北,1,精装 集中供暖,整租 · 小马厂西里 2室1厅 6600元,39.90287,2室1厅1卫,116.346521,https://m.lianjia.com/chuzu/bj/zufang/BJ2171522831362293760.html,62,6600,元/月,小马厂西里,整租
5c715ee8397be4c5251aab67,2,2,滨河西区,北京,门头沟,,南,2,集中供暖,华润悦景湾 4房间2卫 4000元,39.942252,4房间2卫,116.121955,https://m.lianjia.com/chuzu/bj/zufang/BJ2166672584320753664.html,68,4000,元/月,华润悦景湾,整租
5c713f95397be4c5251a2b19,1,2,清河,北京,海淀,231,南 北,1,近地铁 集中供暖 随时看房,整租 ·   永泰庄附近精装修两居室，随时可看，可拎包入住,40.040209,2室1厅1卫,116.367137,https://m.lianjia.com/chuzu/bj/zufang/BJ2193370079566241792.html,58,5800,元/月,永泰东里,整租
5c714d1b397be4c5251a6c9d,1,1,北关,北京,通州,,南,1,集中供暖 新上 随时看房,整租 · 新北京中心 2房间1卫 5200元,39.924748,2房间1卫,116.664666,https://m.lianjia.com/chuzu/bj/zufang/BJ2197761679758983168.html,44,5200,元/月,新北京中心,整租
5c71334b397be4c5251a0f95,2,3,豆各庄,北京,朝阳,,东 南 北,2,双卫生间 随时看房,整租 ·  明厨明卫 中间层 不临街大三居,39.87005,3室2厅2卫,116.585161,https://m.lianjia.com/chuzu/bj/zufang/BJ2191245145360572416.html,130,7000,元/月,万科青青家园,整租
5c714039397be4c5251a2e45,1,2,田村,北京,海淀,251,南 北,1,近地铁 精装 集中供暖,整租 ·   西木小区  南北通透   两居室,39.939056,2室1厅1卫,116.278744,https://m.lianjia.com/chuzu/bj/zufang/BJ2191714160478257152.html,55,5900,元/月,西木小区,整租
5c714ffb397be4c5251a7aa9,1,1,东关,北京,昌平,396,南 北,2,精装 集中供暖 新上,整租 ·   果岭小镇正规一居，一层带院，拎包入住 错层,40.229588,1室2厅1卫,116.272241,https://m.lianjia.com/chuzu/bj/zufang/BJ2197713387918729216.html,69,4500,元/月,果岭小镇,整租
5c714f8e397be4c5251a7883,2,3,回龙观,北京,昌平,153,南 北,1,近地铁 新上,田园风光雅苑 3室1厅 8500元,40.093976,3室1厅2卫,116.35699,https://m.lianjia.com/chuzu/bj/zufang/BJ2196135584060145664.html,125,8500,元/月,田园风光雅苑,整租
5c714a4d397be4c5251a5f01,1,1,杨庄,北京,石景山,1148,北,0,近地铁 集中供暖 新上 随时看房,西现代城 1室0厅 3800元,39.931247,1室0厅1卫,116.196292,https://m.lianjia.com/chuzu/bj/zufang/BJ2197084643789389824.html,43,3800,元/月,西现代城,整租
5c71479b397be4c5251a51f0,2,3,西罗园,北京,丰台,1019,南 北,2,近地铁 集中供暖,祥瑞苑 3室2厅 9000元,39.860193,3室2厅2卫,116.399293,https://m.lianjia.com/chuzu/bj/zufang/BJ2147020632104648704.html,133,9000,元/月,祥瑞苑,整租
5c72b4cf397be4c5251e3dde,1,2,管庄,北京,朝阳,1053,南 北,1,精装 集中供暖 随时看房,整租 · 管庄西里 2室1厅 5200元,39.921447,2室1厅1卫,116.594761,https://m.lianjia.com/chuzu/bj/zufang/BJ2161599387917361152.html,62,5200,元/月,管庄西里,整租
5c714aa8397be4c5251a60c2,1,2,苹果园,北京,石景山,434,南 北,1,近地铁 精装 集中供暖 随时看房,整租 · 金顶街南北通透两居室，干净整洁，全齐，拎包入住,39.932982,2室1厅1卫,116.176791,https://m.lianjia.com/chuzu/bj/zufang/BJ2164531693548216320.html,72,4600,元/月,金顶街四区,整租
5c714bec397be4c5251a66de,1,2,果园,北京,通州,348,南 北,1,近地铁 集中供暖 新上 随时看房,整租 · 达富苑 2室1厅 4900元,39.900279,2室1厅1卫,116.656342,https://m.lianjia.com/chuzu/bj/zufang/BJ2197685537622458368.html,98,4900,元/月,达富苑,整租
5c7157e6397be4c5251a98b8,1,3,长阳,北京,房山,,南 北,2,精装 集中供暖 随时看房,整租 ·   金地朗悦四期 89平的南北三居室,39.744078,3室2厅1卫,116.196865,https://m.lianjia.com/chuzu/bj/zufang/BJ2133728780093759488.html,90,4300,元/月,金地朗悦润园,整租
5c715d4d397be4c5251aa588,2,1,长阳,北京,房山,769,东,1,近地铁 集中供暖 随时看房,五和万科长阳天地 2房间2卫 3200元,39.773936,2房间2卫,116.194021,https://m.lianjia.com/chuzu/bj/zufang/BJ2157941347217047552.html,46,3200,元/月,五和万科长阳天地,整租
5c71345e397be4c5251a13a2,2,3,双井,北京,朝阳,792,南 北,2,近地铁 精装 集中供暖 双卫生间,整租 ·   三环边 世桥国贸 大三居 随时起租,39.904803,3室2厅2卫,116.469718,https://m.lianjia.com/chuzu/bj/zufang/BJ2191321307260657664.html,148,18000,元/月,世桥国贸,整租
5c714ad1397be4c5251a6175,2,3,鲁谷,北京,石景山,636,南 北,2,近地铁 集中供暖,远洋山水 3室2厅 14000元,39.906426,3室2厅2卫,116.247008,https://m.lianjia.com/chuzu/bj/zufang/BJ2172485360922402816.html,150,14000,元/月,远洋山水,整租
5c712e34397be4c5251a0265,1,2,马甸,北京,朝阳,,南 北,1,集中供暖,整租 ·   马甸新风北里双秀公园低楼层2居,39.970874,2室1厅1卫,116.381307,https://m.lianjia.com/chuzu/bj/zufang/BJ2178854157287694336.html,59,7200,元/月,新风北里,整租
5c71551e397be4c5251a8eed,2,2,大兴开发区,北京,大兴,,东南,1,精装 集中供暖 双卫生间,整租 · 泰中花园 2室1厅 5000元,39.768357,2室1厅2卫,116.353561,https://m.lianjia.com/chuzu/bj/zufang/BJ2191914548201013248.html,105,5000,元/月,泰中花园,整租
5c71496c397be4c5251a5ad4,1,2,卢沟桥,北京,丰台,,南,1,随时看房,整租 · 城北路小两居 随时可入住 看房方便,39.864783,2室1厅1卫,116.227175,https://m.lianjia.com/chuzu/bj/zufang/BJ2075371043165306880.html,53,3000,元/月,卢沟桥城北路,整租
5c7157a9397be4c5251a97bc,1,1,亦庄,北京,亦庄开发区,589,南,0,近地铁 集中供暖 随时看房,锋创科技园 1房间1卫 4000元,39.787887,1房间1卫,116.574931,https://m.lianjia.com/chuzu/bj/zufang/BJ2095460345400262656.html,55,4000,元/月,锋创科技园,整租
5c714ce7397be4c5251a6baf,1,1,潞苑,北京,通州,,南,0,精装 集中供暖 随时看房,整租 ·   纯南向开间，家具家电齐全，拎包入住,39.934532,1室0厅1卫,116.681628,https://m.lianjia.com/chuzu/bj/zufang/BJ2170806214919987200.html,50,3500,元/月,古韵新居,整租
5c7155c1397be4c5251a90f7,1,2,枣园,北京,大兴,524,东,1,近地铁,整租 · 波普公社 办公类房源 业主诚心出租,39.752366,3房间1卫,116.338152,https://m.lianjia.com/chuzu/bj/zufang/BJ2080335092932149248.html,90,6500,元/月,波普公社,整租
5c714535397be4c5251a465b,1,2,赵公口,北京,丰台,305,南 北,1,近地铁 集中供暖 新上 随时看房,整租 · 南顶村 2室1厅 5300元,39.850187,2室1厅1卫,116.416888,https://m.lianjia.com/chuzu/bj/zufang/BJ2195555132173713408.html,54,5300,元/月,南顶村,整租
5c714c35397be4c5251a6847,1,2,临河里,北京,通州,1185,南 北,1,新上,DBC加州小镇C区 2室1厅 5000元,39.870642,2室1厅1卫,116.69007,https://m.lianjia.com/chuzu/bj/zufang/BJ2194188984379785216.html,92,5000,元/月,DBC加州小镇C区,整租
5c71402a397be4c5251a2df9,1,2,万寿路,北京,海淀,252,东 西,1,近地铁 精装 集中供暖 新上,整租 ·   近地铁 东西两居 可长租 诚心出租 看房方便,39.915465,2室1厅1卫,116.299198,https://m.lianjia.com/chuzu/bj/zufang/BJ2197773115931762688.html,57,6600,元/月,复兴路61号院,整租
5c71293f397be4c52519fecd,1,1,金融街,北京,西城,437,北,0,近地铁 集中供暖 新上,整租 · 长安兴融中心 1室0厅 9500元,39.910692,1室0厅1卫,116.368586,https://m.lianjia.com/chuzu/bj/zufang/BJ2198377964960489472.html,54,9500,元/月,长安兴融中心,整租
5c715332397be4c5251a8a31,2,3,高米店南,北京,大兴,529,南 北,2,近地铁 双卫生间 随时看房,整租 · 原生墅联排别墅 空房 使用不局限 看房随时,39.763334,3室2厅2卫,116.333726,https://m.lianjia.com/chuzu/bj/zufang/BJ2118708396583821312.html,227,18000,元/月,原生墅,整租
5c714215397be4c5251a378a,1,2,世纪城,北京,海淀,572,东南,1,近地铁 精装 集中供暖,整租 · 远大园六区 2室1厅 12000元,39.957287,2室1厅1卫,116.292805,https://m.lianjia.com/chuzu/bj/zufang/BJ2163168499693002752.html,103,12000,元/月,远大园六区,整租
5c714d68397be4c5251a6e1b,1,3,通州北苑,北京,朝阳,1061,南 北,1,精装 集中供暖 随时看房,整租 · 世纪星城三期 3室1厅 6600元,39.901842,3室1厅1卫,116.640671,https://m.lianjia.com/chuzu/bj/zufang/BJ2143897603157803008.html,103,6600,元/月,世纪星城三期,整租
5c712e23397be4c5251a024f,1,3,广安门,北京,西城,,南 北,1,精装 集中供暖,整租 ·   西城广安门车站西街三居室，集中供暖，低楼层,39.884248,3室1厅1卫,116.345084,https://m.lianjia.com/chuzu/bj/zufang/BJ2174455300034134016.html,76,8500,元/月,车站西街15号院,整租
5c7124c5397be4c52519f8fa,1,2,陶然亭,北京,西城,715,南 北,1,近地铁 集中供暖 新上 随时看房,四平园 2室1厅 7800元,39.888411,2室1厅1卫,116.386269,https://m.lianjia.com/chuzu/bj/zufang/BJ2196149461016133632.html,72,7800,元/月,四平园,整租
5c7156fd397be4c5251a94a7,1,2,顺义城,北京,顺义,,南 北,1,精装 集中供暖,整租 · 怡馨家园 2室1厅 4600元,40.125799,2室1厅1卫,116.654682,https://m.lianjia.com/chuzu/bj/zufang/BJ2180320574776287232.html,96,4600,元/月,怡馨家园,整租
5c7154f6397be4c5251a8e5e,1,2,亦庄,北京,大兴,,东南,1,精装 集中供暖 随时看房,整租 · 金色漫香林三期 2室1厅 5500元,39.827384,2室1厅1卫,116.523423,https://m.lianjia.com/chuzu/bj/zufang/BJ2168813981664280576.html,76,5500,元/月,金色漫香林三期,整租
5c71447e397be4c5251a432f,1,2,定慧寺,北京,海淀,235,西南,1,近地铁 精装 集中供暖 新上,整租 · 八里庄北里 2室1厅 8200元,39.934527,2室1厅1卫,116.298736,https://m.lianjia.com/chuzu/bj/zufang/BJ2198574648433065984.html,76,8200,元/月,八里庄北里,整租
5c714df6397be4c5251a70b1,1,2,通州其它,北京,通州,,东 南,1,精装 新上,整租 · 城乡世纪广场莫尔空间精装2房间一卫,39.809112,3房间1卫,116.539213,https://m.lianjia.com/chuzu/bj/zufang/BJ2196812755799900160.html,55,5300,元/月,城乡世纪广场莫尔空间,整租
5c72bd6d397be4c5251e53ab,2,2,燕莎,北京,朝阳,,西南,1,集中供暖 新上 随时看房,霄云里八号，白色系精装，高楼层。,39.968418,3房间2卫,116.471355,https://m.lianjia.com/chuzu/bj/zufang/BJ2196106718054981632.html,94,16000,元/月,霄云里8号,整租
5c712f5f397be4c5251a03f1,0,1,广安门,北京,西城,338,北,0,近地铁 集中供暖,"整租 · 朗琴国际写字楼，长期出租,看房方便",39.894161,1房间0卫,116.34794,https://m.lianjia.com/chuzu/bj/zufang/BJ2120230448503463936.html,130,39000,元/月,朗琴国际,整租
5c72b247397be4c5251e37ba,1,2,东坝,北京,朝阳,,南 北,1,集中供暖 随时看房,朝阳新城四区 2室1厅 5200元,39.952128,2室1厅1卫,116.561128,https://m.lianjia.com/chuzu/bj/zufang/BJ2170014111482781696.html,94,5200,元/月,朝阳新城四区,整租
5c712a7a397be4c5251a0052,1,1,马连道,北京,西城,563,南 西,1,近地铁 集中供暖 随时看房,整租 · 西城区 红莲中里 正规一室一厅,39.886963,1室1厅1卫,116.340473,https://m.lianjia.com/chuzu/bj/zufang/BJ2167945625738952704.html,47,4900,元/月,红莲中里,整租
5c7142ad397be4c5251a3a68,1,1,西直门,北京,海淀,,北,1,集中供暖 随时看房,整租 · 智慧大厦高层大开间 精装修 视野好,39.963352,1室1厅1卫,116.360104,https://m.lianjia.com/chuzu/bj/zufang/BJ2146180262612959232.html,45,5500,元/月,智慧大厦,整租
5c71338d397be4c5251a108a,2,3,石佛营,北京,朝阳,210,南 北,2,近地铁 集中供暖 双卫生间 新上,整租 · 东岸 3室2厅 12000元,39.931785,3室2厅2卫,116.510441,https://m.lianjia.com/chuzu/bj/zufang/BJ2196366439357612032.html,136,12000,元/月,东岸,整租
5c712610397be4c52519faa6,1,3,德胜门,北京,西城,639,南 北,1,近地铁 集中供暖 押一付一,整租 ·   新街口东街 中楼层 南北通透 三居室,39.948346,3室1厅1卫,116.38475,https://m.lianjia.com/chuzu/bj/zufang/BJ2191875217725865984.html,71,8500,元/月,新街口东街,整租
5c71420a397be4c5251a374e,1,2,清河,北京,海淀,1110,东,1,近地铁,整租 · 清润家园全东向两居室，家具家电齐全,40.036507,2室1厅1卫,116.360608,https://m.lianjia.com/chuzu/bj/zufang/BJ2156244322406899712.html,79,7000,元/月,清润家园,整租
5c714a7b397be4c5251a5fea,1,3,鲁谷,北京,石景山,812,南 北,1,近地铁 精装 集中供暖 随时看房,整租 · 鲁谷74号院 3室1厅 8200元,39.910338,3室1厅1卫,116.250662,https://m.lianjia.com/chuzu/bj/zufang/BJ2172467989423857664.html,82,8200,元/月,鲁谷74号院,整租
5c714e98397be4c5251a73df,2,2,武夷花园,北京,通州,,南 北,1,精装 双卫生间 随时看房,整租 ·   加华西北通透两居两卫  交通便利  居住舒适,39.921775,2室1厅2卫,116.694847,https://m.lianjia.com/chuzu/bj/zufang/BJ2159847426951741440.html,103,5200,元/月,加华印象街,整租
5c71545e397be4c5251a8c4a,1,2,枣园,北京,大兴,18,南,1,近地铁 集中供暖,中建国际港 2室1厅 5800元,39.760335,2室1厅1卫,116.338397,https://m.lianjia.com/chuzu/bj/zufang/BJ2174358659344646144.html,90,5800,元/月,中建国际港,整租
5c7137a7397be4c5251a1c38,1,3,望京,北京,朝阳,314,南 北,2,近地铁 精装 集中供暖 随时看房,整租 · 融科橄榄城一期 3室2厅 18000元,40.004922,3室2厅1卫,116.492039,https://m.lianjia.com/chuzu/bj/zufang/BJ2156368862147518464.html,148,18000,元/月,融科橄榄城一期,整租
5c714b5b397be4c5251a6408,1,2,八角,北京,石景山,762,南 北,1,近地铁 精装 集中供暖 新上,整租 · 西引力 2室1厅 6800元,39.907735,2室1厅1卫,116.216106,https://m.lianjia.com/chuzu/bj/zufang/BJ2193415098540752896.html,102,6800,元/月,西引力,整租
5c7150af397be4c5251a7dff,1,2,霍营,北京,昌平,,南 北,1,精装 集中供暖 随时看房,整租 · 紫金新干线二期 2室1厅 6300元,40.083951,2室1厅1卫,116.386362,https://m.lianjia.com/chuzu/bj/zufang/BJ2151183074376032256.html,94,6300,元/月,紫金新干线二期,整租
5c714d7c397be4c5251a6e7a,1,2,武夷花园,北京,通州,,西北,1,随时看房,整租 ·    加华西北通透两居，交通便利，居住舒适，,39.921775,2室1厅1卫,116.694847,https://m.lianjia.com/chuzu/bj/zufang/BJ2152595033290194944.html,87,4800,元/月,加华印象街,整租
5c71471f397be4c5251a4f91,1,2,马家堡,北京,丰台,385,东 西,1,近地铁 随时看房,整租 · 富卓苑 2室1厅 6000元,39.844419,2室1厅1卫,116.383092,https://m.lianjia.com/chuzu/bj/zufang/BJ2181773816555118592.html,71,6000,元/月,富卓苑,整租
5c7134c0397be4c5251a1505,2,4,团结湖,北京,朝阳,936,西北,1,近地铁 精装 双卫生间 随时看房,整租 · 团结湖公寓 4室1厅 19000元,39.934452,4室1厅2卫,116.477613,https://m.lianjia.com/chuzu/bj/zufang/BJ2021391620577951744.html,209,19000,元/月,团结湖公寓,整租
5c714867397be4c5251a55c7,1,2,科技园区,北京,丰台,387,西南,1,近地铁 集中供暖 随时看房,整租 · 天下儒寓 2室1厅 7200元,39.838131,2室1厅1卫,116.299198,https://m.lianjia.com/chuzu/bj/zufang/BJ2147550334019436544.html,105,7200,元/月,天下儒寓,整租
5c71481b397be4c5251a5460,1,3,科技园区,北京,丰台,,南 北,1,精装 集中供暖,整租 · 中海苏黎世家精装全齐，明厨明卫小三居，看房提前约,39.824916,3室1厅1卫,116.288381,https://m.lianjia.com/chuzu/bj/zufang/BJ2088810047693406208.html,94,12000,元/月,中海苏黎世家,整租
5c714262397be4c5251a3906,1,3,海淀北部新区,北京,海淀,,南 北,1,新上,六里屯一区 3室1厅 7000元,40.069106,3室1厅1卫,116.252716,https://m.lianjia.com/chuzu/bj/zufang/BJ2195495829328887808.html,84,7000,元/月,六里屯一区,整租
5c72b251397be4c5251e37da,2,3,东坝,北京,朝阳,,南 北,1,随时看房,奥林匹克花园三期 3室1厅 9200元,39.964586,3室1厅2卫,116.551758,https://m.lianjia.com/chuzu/bj/zufang/BJ2151986504832909312.html,127,9200,元/月,奥林匹克花园三期,整租
5c7140bf397be4c5251a30e9,1,1,公主坟,北京,海淀,341,南,1,近地铁 精装 集中供暖,整租 ·   拎包入住 靠地铁 诚心出租 可长租,39.91533,1室1厅1卫,116.305063,https://m.lianjia.com/chuzu/bj/zufang/BJ2192753163390959616.html,42,5700,元/月,翠微路2号院,整租
5c72b829397be4c5251e4613,1,2,潘家园,北京,朝阳,855,东,1,精装 集中供暖,整租 · 潘家园南里 2室1厅 5500元,39.878722,2室1厅1卫,116.45648,https://m.lianjia.com/chuzu/bj/zufang/BJ2181163957388591104.html,43,5500,元/月,潘家园南里,整租
5c72b91c397be4c5251e48ad,2,3,十里堡,北京,朝阳,,南 北,1,集中供暖 双卫生间 随时看房,整租 · 爱这城三期 3室1厅 13000元,39.920725,3室1厅2卫,116.511954,https://m.lianjia.com/chuzu/bj/zufang/BJ2164340188699443200.html,149,13000,元/月,爱这城三期,整租
5c71465b397be4c5251a4bc1,1,3,青塔,北京,丰台,,南 北,1,集中供暖 新上,青塔东里 3室1厅 6200元,39.901458,3室1厅1卫,116.276825,https://m.lianjia.com/chuzu/bj/zufang/BJ2198365020063547392.html,99,6200,元/月,青塔东里,整租
5c71325b397be4c5251a0c1e,1,2,甜水园,北京,朝阳,196,南 北,1,近地铁 集中供暖 随时看房,整租 · 六里屯北里 2室1厅 7200元,39.938271,2室1厅1卫,116.481581,https://m.lianjia.com/chuzu/bj/zufang/BJ2162026621190537216.html,61,7200,元/月,六里屯北里,整租
5c712f7b397be4c5251a0415,1,1,六铺炕,北京,西城,,北,1,随时看房,整租 · 德胜置业办公楼 带电梯 朝北无遮挡视野好 随时签约,39.968913,1室1厅1卫,116.38894,https://m.lianjia.com/chuzu/bj/zufang/BJ2146805676876234752.html,114,13000,元/月,德胜置业,整租
5c71190b397be4c52519ef2f,1,1,广渠门,北京,朝阳,634,东北,1,近地铁 集中供暖 随时看房,整租 ·   广渠门外忠实里精装一居等你来看,39.904606,1室1厅1卫,116.4515,https://m.lianjia.com/chuzu/bj/zufang/BJ2194212990310686720.html,60,5500,元/月,金世纪嘉园,整租
5c7143d5397be4c5251a4001,1,3,苏州桥,北京,海淀,553,南 北,1,近地铁 集中供暖,整租 · 海淀区可随时使用的中关村SOHO,39.98945,4房间1卫,116.316658,https://m.lianjia.com/chuzu/bj/zufang/BJ2059876706667200512.html,223,82500,元/月,中关村SOHO,整租
5c7154e4397be4c5251a8e1b,1,3,黄村中,北京,大兴,219,南 北,1,近地铁 集中供暖,整租 · 兴政西里 3室1厅 4300元,39.734779,3室1厅1卫,116.341153,https://m.lianjia.com/chuzu/bj/zufang/BJ2163168304473047040.html,95,4300,元/月,兴政西里,整租
5c713211397be4c5251a0b17,2,3,奥林匹克公园,北京,朝阳,697,东 南 北,1,近地铁 新上 随时看房,上元君庭 3室1厅 15500元,40.031546,3室1厅2卫,116.419162,https://m.lianjia.com/chuzu/bj/zufang/BJ2198314342871465984.html,159,15500,元/月,上元君庭,整租
5c714913397be4c5251a5913,1,2,北大地,北京,丰台,789,东 西,1,近地铁 集中供暖,整租 · 北大地同盛里小区家电家具齐全业主诚心出租有车位,39.856361,2室1厅1卫,116.296708,https://m.lianjia.com/chuzu/bj/zufang/BJ2144203855775408128.html,70,5300,元/月,同盛里,整租
5c714b70397be4c5251a6467,1,2,梨园,北京,通州,621,南 北,1,近地铁 精装 集中供暖 随时看房,整租 · 梨花园 2室1厅 4200元,39.890698,2室1厅1卫,116.67755,https://m.lianjia.com/chuzu/bj/zufang/BJ2190510797195845632.html,62,4200,元/月,梨花园,整租
5c715ec4397be4c5251aaa91,1,2,滨河西区,北京,门头沟,,东 西,1,集中供暖 随时看房,整租 · 临镜苑 2室1厅 4500元,39.939735,2室1厅1卫,116.122491,https://m.lianjia.com/chuzu/bj/zufang/BJ2147736889765920768.html,98,4500,元/月,临镜苑,整租
5c714027397be4c5251a2dea,1,2,中关村,北京,海淀,22,东北,1,近地铁 集中供暖 新上,东南小区 2室1厅 8500元,39.984336,2室1厅1卫,116.330345,https://m.lianjia.com/chuzu/bj/zufang/BJ2197736269843808256.html,62,8500,元/月,东南小区,整租
5c72b7e7397be4c5251e4566,1,1,南沙滩,北京,朝阳,,北,1,精装 集中供暖 新上 随时看房,整租 · 2005年小区精装带电梯一居室，随时看房，随时入住,40.015247,1室1厅1卫,116.378672,https://m.lianjia.com/chuzu/bj/zufang/BJ2199240221747585024.html,51,6000,元/月,名苑雅居,整租
5c714a27397be4c5251a5e49,1,3,宋家庄,北京,丰台,839,南 北,1,近地铁 精装 集中供暖,整租 · 嘉和人家 3室1厅 8500元,39.853072,3室1厅1卫,116.444565,https://m.lianjia.com/chuzu/bj/zufang/BJ2177974122641104896.html,100,8500,元/月,嘉和人家,整租
5c71315f397be4c5251a086b,1,1,农展馆,北京,朝阳,177,南 北,1,近地铁 集中供暖 随时看房,整租 · 枣营北里 1室1厅 5800元,39.953739,1室1厅1卫,116.477581,https://m.lianjia.com/chuzu/bj/zufang/BJ2193475002975141888.html,49,5800,元/月,枣营北里,整租
5c715844397be4c5251a9a6b,1,2,良乡,北京,房山,,南,1,集中供暖,整租 · 北关东路四层 装修干净 纯南向两居室 家具家电齐全,39.742294,2室1厅1卫,116.15082,https://m.lianjia.com/chuzu/bj/zufang/BJ2150548924383887360.html,50,2200,元/月,北关东路社区,整租
5c714669397be4c5251a4c09,1,1,科技园区,北京,丰台,1139,西南,1,近地铁 精装 集中供暖 随时看房,整租 · 设计师广场精装修一居室，采光好,39.844912,1室1厅1卫,116.291708,https://m.lianjia.com/chuzu/bj/zufang/BJ2099923721417392128.html,58,4500,元/月,设计师广场,整租
5c7150ea397be4c5251a7f1c,2,3,回龙观,北京,昌平,,南 北,2,精装 集中供暖 双卫生间,整租 · 龙兴园北区 3室2厅 7500元,40.083072,3室2厅2卫,116.309045,https://m.lianjia.com/chuzu/bj/zufang/BJ2193453471347785728.html,119,7500,元/月,龙兴园北区,整租
5c714996397be4c5251a5ba6,1,1,五里店,北京,丰台,,南 北,1,集中供暖 随时看房,整租 ·   丰西北里简装2居改1居房，可还原，看房方便，拎包入住,39.844492,1室1厅1卫,116.258053,https://m.lianjia.com/chuzu/bj/zufang/BJ2163564174712504320.html,54,3400,元/月,丰西北里,整租
5c715534397be4c5251a8f41,3,6,亦庄,北京,大兴,,南 北,3,精装,整租 · 远洋天著三期 6室3厅 35000元,39.827442,6室3厅3卫,116.536293,https://m.lianjia.com/chuzu/bj/zufang/BJ2083887575801798656.html,230,35000,元/月,远洋天著三期,整租
5c715638397be4c5251a923e,2,3,西红门,北京,大兴,1092,南 北,2,精装 集中供暖 双卫生间,整租 · 月桂庄园 3室2厅 10000元,39.792081,3室2厅2卫,116.342803,https://m.lianjia.com/chuzu/bj/zufang/BJ2120068886345809920.html,149,10000,元/月,月桂庄园,整租
5c715820397be4c5251a99ce,1,1,亦庄,北京,亦庄开发区,658,西北,0,近地铁 集中供暖,易居国际 1房间1卫 4000元,39.810563,1房间1卫,116.506392,https://m.lianjia.com/chuzu/bj/zufang/BJ2158417956055556096.html,45,4000,元/月,易居国际,整租
5c713159397be4c5251a0857,1,1,建国门外,北京,朝阳,541,北,1,近地铁 精装 集中供暖 随时看房,整租 · 地杰长安驿，装修好的中上等装修，家居有风格,39.911975,1室1厅1卫,116.450853,https://m.lianjia.com/chuzu/bj/zufang/BJ2100761308625641472.html,45,9500,元/月,地杰长安驿,整租
5c714b7d397be4c5251a64aa,1,2,果园,北京,通州,896,南 北,1,近地铁 精装 集中供暖 新上 随时看房,整租 · 北机家属院 2室1厅 4200元,39.898048,2室1厅1卫,116.64378,https://m.lianjia.com/chuzu/bj/zufang/BJ2196217462881009664.html,57,4200,元/月,北机家属院,整租
5c714f2e397be4c5251a76b8,2,2,武夷花园,北京,通州,635,南,2,近地铁 集中供暖 双卫生间 新上,整租 · 新华联运河湾南区两局复试 南向采光好 跃层,39.911017,2室2厅2卫,116.703234,https://m.lianjia.com/chuzu/bj/zufang/BJ2189640567883825152.html,107,6800,元/月,运河湾,整租
5c712db3397be4c5251a01be,1,1,木樨地,北京,西城,67,北,1,近地铁 集中供暖 随时看房,整租 ·   复兴门外大街精装修朝北一居室，看房方便,39.912912,1室1厅1卫,116.34688,https://m.lianjia.com/chuzu/bj/zufang/BJ2149774396867215360.html,39,6000,元/月,复兴门外大街,整租
5c715ed6397be4c5251aab05,1,2,大峪,北京,门头沟,,东南,1,集中供暖,中昂时代广场 3房间1卫 2800元,39.949929,3房间1卫,116.102869,https://m.lianjia.com/chuzu/bj/zufang/BJ2136888025060483072.html,41,2800,元/月,中昂时代广场,整租
5c712974397be4c52519ff0e,1,2,新街口,北京,西城,220,西南,1,近地铁 精装 随时看房,整租 · 新街口西里三区 2室1厅 8300元,39.949564,2室1厅1卫,116.372605,https://m.lianjia.com/chuzu/bj/zufang/BJ2104966676125851648.html,68,8300,元/月,新街口西里三区,整租
5c71548a397be4c5251a8ce7,2,4,瀛海,北京,大兴,1151,南 北,2,精装 双卫生间 随时看房,整租 · 中国铁建花语金郡 4室2厅 7000元,39.779121,4室2厅2卫,116.451767,https://m.lianjia.com/chuzu/bj/zufang/BJ2016518002061099008.html,126,7000,元/月,中国铁建花语金郡,整租
5c7118ec397be4c52519ef02,1,2,安贞,北京,朝阳,652,南,1,近地铁 集中供暖 随时看房,西青年沟 2室1厅 7200元,39.968393,2室1厅1卫,116.418876,https://m.lianjia.com/chuzu/bj/zufang/BJ2192602127577661440.html,48,7200,元/月,西青年沟,整租
5c72b173397be4c5251e35bc,2,3,朝青,北京,朝阳,,南 北,2,精装 双卫生间 随时看房,整租 · 逸翠园南北三居，双明卫，家具家电齐全、保持不错 错层,39.950025,3室2厅2卫,116.529599,https://m.lianjia.com/chuzu/bj/zufang/BJ2159179816799313920.html,153,15500,元/月,逸翠园,整租
5c714b04397be4c5251a6273,1,2,玉泉路,北京,石景山,1141,南 北,1,精装 集中供暖 随时看房,整租 · 南北通透 两居室 拎包入住 家具家电全齐,39.91772,2室1厅1卫,116.252087,https://m.lianjia.com/chuzu/bj/zufang/BJ2174327267822673920.html,59,5800,元/月,玉泉西路甲3号院,整租
5c71240a397be4c52519f811,1,1,朝阳门内,北京,东城,147,东,1,近地铁 精装 集中供暖,整租 · 北京INN 2房间1卫 10500元,39.928077,2房间1卫,116.438146,https://m.lianjia.com/chuzu/bj/zufang/BJ2104373646922891264.html,55,10500,元/月,北京INN,整租
5c71569a397be4c5251a9368,1,2,西红门,北京,大兴,,东 南 北,2,精装 集中供暖 新上,整租 · 福星花园 2室2厅 5700元,39.797657,2室2厅1卫,116.357702,https://m.lianjia.com/chuzu/bj/zufang/BJ2198532873752428544.html,107,5700,元/月,福星花园,整租
5c7142e2397be4c5251a3b6b,1,1,西直门,北京,海淀,,北,1,精装 集中供暖 随时看房,整租 · 智慧大厦 精装修一居 看房方便 随时能租,39.963352,1室1厅1卫,116.360104,https://m.lianjia.com/chuzu/bj/zufang/BJ2163687256194555904.html,45,6500,元/月,智慧大厦,整租
5c712633397be4c52519fad8,1,1,右安门内,北京,西城,,南,1,集中供暖 新上 随时看房,整租 · 右安门内西街甲10号院 1室1厅 4700元,39.877194,1室1厅1卫,116.366335,https://m.lianjia.com/chuzu/bj/zufang/BJ2194192839364050944.html,45,4700,元/月,右安门内西街甲10号院,整租
5c714e0a397be4c5251a7118,2,3,武夷花园,北京,通州,319,南 北,1,近地铁 集中供暖 随时看房,富力运河十号 4房间2卫 8500元,39.910567,4房间2卫,116.692994,https://m.lianjia.com/chuzu/bj/zufang/BJ2088886048582549504.html,144,8500,元/月,富力运河十号,整租
5c7146e0397be4c5251a4e53,2,2,草桥,北京,丰台,165,东南,1,近地铁 精装 集中供暖 双卫生间 随时看房,整租 · 草桥地铁，恋日花都精装二居，家具家电有，看房方便,39.850714,2室1厅2卫,116.356731,https://m.lianjia.com/chuzu/bj/zufang/BJ2164502239317082112.html,122,9000,元/月,恋日花都,整租
5c72b8e9397be4c5251e4818,1,1,石佛营,北京,朝阳,,东,1,精装 集中供暖 随时看房,整租 · 日月东华东向一居室 精装修 家具家电齐全,39.938707,1室1厅1卫,116.511523,https://m.lianjia.com/chuzu/bj/zufang/BJ2181058903117406208.html,65,6200,元/月,日月东华,整租
5c72b56e397be4c5251e3f2f,3,5,惠新西街,北京,朝阳,634,南 北,1,近地铁,整租 · 惠新西街北口惠安轩五居室 随时可住 跃层,39.989847,5室1厅3卫,116.422505,https://m.lianjia.com/chuzu/bj/zufang/BJ2143895031478484992.html,203,17500,元/月,惠安轩,整租
5c715b3b397be4c5251aa215,1,2,良乡,北京,房山,898,南 北,1,新上 随时看房,瑞雪春堂 2室1厅 3700元,39.726495,2室1厅1卫,116.154608,https://m.lianjia.com/chuzu/bj/zufang/BJ2196267239983030272.html,90,3700,元/月,瑞雪春堂,整租
5c72b82a397be4c5251e4618,1,2,潘家园,北京,朝阳,264,西,1,近地铁 新上,弘善家园 2室1厅 6300元,39.8764,2室1厅1卫,116.457526,https://m.lianjia.com/chuzu/bj/zufang/BJ2199224532282384384.html,79,6300,元/月,弘善家园,整租
5c713fbe397be4c5251a2bed,1,2,玉泉路,北京,海淀,181,东 西 北,1,近地铁 集中供暖 随时看房,复兴路46号院 2室1厅 7500元,39.912414,2室1厅1卫,116.259844,https://m.lianjia.com/chuzu/bj/zufang/BJ2193488985634897920.html,69,7500,元/月,复兴路46号院,整租
5c72af08397be4c5251e2f9b,2,2,北苑,北京,朝阳,684,东,1,近地铁 精装 集中供暖 双卫生间 随时看房,整租 ·  美立方办公房 上下两层 空房出租 跃层,40.044097,3房间2卫,116.425063,https://m.lianjia.com/chuzu/bj/zufang/BJ2141882647360569344.html,51,7800,元/月,美立方,整租
5c713402397be4c5251a1243,1,2,潘家园,北京,朝阳,1130,西北,1,集中供暖 新上 随时看房,整租 · 劲松七区 2室1厅 6500元,39.88678,2室1厅1卫,116.453723,https://m.lianjia.com/chuzu/bj/zufang/BJ2194941870772600832.html,51,6500,元/月,劲松七区,整租
5c715552397be4c5251a8fb0,2,2,枣园,北京,大兴,,东北,1,精装 集中供暖 双卫生间,整租 · 首邑溪谷 2室1厅 4500元 跃层,39.768231,2室1厅2卫,116.31681,https://m.lianjia.com/chuzu/bj/zufang/BJ2145378274249801728.html,47,4500,元/月,首邑溪谷,整租
5c72b6b8397be4c5251e42a9,1,2,劲松,北京,朝阳,1042,南 北,1,近地铁 精装 集中供暖,整租 · 广和南里二条南北向精装修两居室，业主自住,39.891295,2室1厅1卫,116.455989,https://m.lianjia.com/chuzu/bj/zufang/BJ2177956628115505152.html,58,6300,元/月,广和南里二条,整租
5c7152ec397be4c5251a88da,1,1,黄村中,北京,大兴,669,西,1,近地铁 集中供暖 随时看房,永华北里 1室1厅 2800元,39.73655,1室1厅1卫,116.330117,https://m.lianjia.com/chuzu/bj/zufang/BJ2168108502491332608.html,52,2800,元/月,永华北里,整租
5c72bc47397be4c5251e5083,1,2,望京,北京,朝阳,404,西南,1,近地铁 精装 集中供暖,整租 · 大西洋新城E区 2室1厅 13000元,39.999963,2室1厅1卫,116.471813,https://m.lianjia.com/chuzu/bj/zufang/BJ2175767732283244544.html,90,13000,元/月,大西洋新城E区,整租
5c71578e397be4c5251a972a,2,3,亦庄,北京,亦庄开发区,1018,南 北,2,集中供暖 随时看房,郁金香舍 3室2厅 9000元 复式,39.799319,3室2厅2卫,116.508046,https://m.lianjia.com/chuzu/bj/zufang/BJ2138884288337149952.html,127,9000,元/月,郁金香舍,整租
5c714017397be4c5251a2d9e,1,1,甘家口,北京,海淀,138,南,1,近地铁 精装 集中供暖 新上 随时看房,整租 · 阜南小区 1室1厅 5500元,39.927927,1室1厅1卫,116.333797,https://m.lianjia.com/chuzu/bj/zufang/BJ2196252538301857792.html,32,5500,元/月,阜南小区,整租
5c713130397be4c5251a07c4,1,3,团结湖,北京,朝阳,851,东南,1,近地铁 精装 集中供暖 随时看房,整租 · 团结湖东里 3室1厅 11500元,39.934282,3室1厅1卫,116.476682,https://m.lianjia.com/chuzu/bj/zufang/BJ2049893611940102144.html,79,11500,元/月,团结湖东里,整租
5c712fab397be4c5251a0450,0,1,六铺炕,北京,西城,,北,0,随时看房,整租 · 正规朝北120平大开间 办公神器,39.968913,1室0厅0卫,116.38894,https://m.lianjia.com/chuzu/bj/zufang/BJ2014415313126293504.html,121,15500,元/月,德胜置业,整租
5c714ce9397be4c5251a6bb8,1,2,果园,北京,通州,526,南 北,1,近地铁 集中供暖,葛布店北里 2室1厅 4300元,39.899598,2室1厅1卫,116.66424,https://m.lianjia.com/chuzu/bj/zufang/BJ2170998129989009408.html,64,4300,元/月,葛布店北里,整租
5c714d9e397be4c5251a6f20,1,3,北关,北京,通州,,南 北,1,精装 集中供暖 随时看房,整租 · 金地格林格林 3室1厅 5000元,39.956868,3室1厅1卫,116.661329,https://m.lianjia.com/chuzu/bj/zufang/BJ2163169982840569856.html,89,5000,元/月,金地格林格林,整租
5c715206397be4c5251a8481,3,3,北七家,北京,昌平,,东南,3,新上,整租 · 王府花园 3室3厅 8000元,40.113334,3室3厅3卫,116.408997,https://m.lianjia.com/chuzu/bj/zufang/BJ2196207301969854464.html,136,8000,元/月,王府花园,整租
5c713541397be4c5251a167d,2,3,双井,北京,朝阳,118,南,1,近地铁 精装 集中供暖 双卫生间 随时看房,整租 · 双井富力城D区 全南向三居室 临地铁7号线,39.901899,3室1厅2卫,116.459652,https://m.lianjia.com/chuzu/bj/zufang/BJ2106522556843696128.html,137,17000,元/月,富力城D区,整租
5c715e56397be4c5251aa861,1,1,石门营,北京,门头沟,756,北,1,近地铁,石门营新区七区东苑 1室1厅 2500元,39.891953,1室1厅1卫,116.11415,https://m.lianjia.com/chuzu/bj/zufang/BJ2148264931232333824.html,46,2500,元/月,石门营新区七区东苑,整租
5c712760397be4c52519fc5e,1,1,马连道,北京,西城,1025,西,0,近地铁 精装 集中供暖 新上 随时看房,整租 · 茶贸国际中心 1房间1卫 4300元,39.888221,1房间1卫,116.335357,https://m.lianjia.com/chuzu/bj/zufang/BJ2163168880125034496.html,34,4300,元/月,茶贸国际中心,整租
5c72bc45397be4c5251e507d,1,1,望京,北京,朝阳,105,西南,1,近地铁 集中供暖,望京路3号院 1室1厅 6000元,39.996957,1室1厅1卫,116.476665,https://m.lianjia.com/chuzu/bj/zufang/BJ2172297824447250432.html,39,6000,元/月,望京路3号院,整租
5c72af34397be4c5251e302c,2,3,北苑,北京,朝阳,,南 北,2,随时看房,润泽悦溪 3室2厅 12500元,40.059329,3室2厅2卫,116.437025,https://m.lianjia.com/chuzu/bj/zufang/BJ2176613106266931200.html,89,12500,元/月,润泽悦溪,整租
5c7130f6397be4c5251a06f7,1,2,管庄,北京,朝阳,846,南 北,1,精装 新上 随时看房,整租 · 建东苑 2室1厅 5800元,39.922146,2室1厅1卫,116.588913,https://m.lianjia.com/chuzu/bj/zufang/BJ2196894675565019136.html,85,5800,元/月,建东苑,整租
5c71475f397be4c5251a50cf,1,2,北大地,北京,丰台,,南 北,1,集中供暖 随时看房,整租 · 西安街甲2号 2室1厅 4500元,39.854863,2室1厅1卫,116.286145,https://m.lianjia.com/chuzu/bj/zufang/BJ2056920993658060800.html,60,4500,元/月,西安街甲2号,整租
5c72b4c8397be4c5251e3dc4,1,1,管庄,北京,朝阳,1053,南,1,集中供暖 随时看房,整租 · 管庄西里 1室1厅 4000元,39.921447,1室1厅1卫,116.594761,https://m.lianjia.com/chuzu/bj/zufang/BJ2115967642299793408.html,41,4000,元/月,管庄西里,整租
5c714cb9397be4c5251a6ac6,1,1,北关,北京,通州,,北,0,集中供暖 随时看房,整租 · 通州北关 财富东方 交通便利 出行方便,39.92439,1室0厅1卫,116.658082,https://m.lianjia.com/chuzu/bj/zufang/BJ2085208014650089472.html,45,3600,元/月,财富东方,整租
5c7145cb397be4c5251a492f,1,1,新宫,北京,丰台,1004,西,1,近地铁 精装 集中供暖 新上 随时看房,整租 · 南庭新苑南区 1室1厅 4000元,39.809437,1室1厅1卫,116.374699,https://m.lianjia.com/chuzu/bj/zufang/BJ2194190033215832064.html,52,4000,元/月,南庭新苑南区,整租
5c7128af397be4c52519fe13,1,1,牛街,北京,西城,618,西南,1,近地铁 集中供暖 随时看房,整租 · 双槐里 1室1厅 4800元,39.88737,1室1厅1卫,116.377179,https://m.lianjia.com/chuzu/bj/zufang/BJ2171595208851202048.html,46,4800,元/月,双槐里,整租
5c715068397be4c5251a7cb0,1,2,天通苑,北京,昌平,748,南,1,近地铁 精装 集中供暖,整租 · 东亚奥北中心北区 3房间1卫 7300元,40.065593,3房间1卫,116.416806,https://m.lianjia.com/chuzu/bj/zufang/BJ2192664827221254144.html,90,7300,元/月,东亚奥北中心北区,整租
5c715be5397be4c5251aa416,1,2,良乡,北京,房山,,南 北,1,,整租 · 明源北里 两居 五层 南北通透 家具家电齐全,39.755725,2室1厅1卫,116.163745,https://m.lianjia.com/chuzu/bj/zufang/BJ2141046198260203520.html,61,2500,元/月,明源北里,整租
5c7132e0397be4c5251a0e11,1,3,惠新西街,北京,朝阳,135,西南 北,1,近地铁 集中供暖 随时看房,整租 · 惠新西街北口惠新西街三居室！!,39.993993,3室1厅1卫,116.424194,https://m.lianjia.com/chuzu/bj/zufang/BJ2175913648420028416.html,71,8600,元/月,惠新西街小区,整租
5c714303397be4c5251a3c0e,1,2,六里桥,北京,海淀,,西南,1,随时看房,整租 · 海淀区万丰路十八号院两居室出租,39.893778,2室1厅1卫,116.302492,https://m.lianjia.com/chuzu/bj/zufang/BJ2174391743141642240.html,97,7000,元/月,橙色年代,整租
5c72af0b397be4c5251e2fa3,1,1,北苑,北京,朝阳,403,北,1,近地铁 精装 集中供暖 随时看房,整租 · 中国铁建广场 2房间1卫 6000元,40.048622,2房间1卫,116.447271,https://m.lianjia.com/chuzu/bj/zufang/BJ2145549756372353024.html,57,6000,元/月,中国铁建广场,整租
5c714b1d397be4c5251a62e7,1,2,苹果园,北京,石景山,894,南 北,1,集中供暖 随时看房,整租 · 模式口南里 2室1厅 4000元,39.936388,2室1厅1卫,116.167112,https://m.lianjia.com/chuzu/bj/zufang/BJ2131642381282852864.html,59,4000,元/月,模式口南里,整租
5c71369e397be4c5251a19d7,1,1,芍药居,北京,朝阳,282,西,1,月租 近地铁 精装 集中供暖 随时看房,整租 · 08年新楼盘，独门独院管理好，精装修,39.983437,1室1厅1卫,116.439095,https://m.lianjia.com/chuzu/bj/zufang/BJ2143138618573856768.html,59,7500,元/月,隆远阁,整租
5c71526e397be4c5251a867d,1,2,枣园,北京,大兴,269,南 北,1,近地铁 集中供暖 随时看房,枣园东里 2室1厅 4000元,39.759364,2室1厅1卫,116.341356,https://m.lianjia.com/chuzu/bj/zufang/BJ2151936712572674048.html,83,4000,元/月,枣园东里,整租
5c714ce4397be4c5251a6b99,1,2,新华大街,北京,通州,,南 北,1,精装 集中供暖 随时看房,整租 · 皓月苑 2室1厅 3600元,39.903665,2室1厅1卫,116.675771,https://m.lianjia.com/chuzu/bj/zufang/BJ2167295550243225600.html,67,3600,元/月,皓月苑,整租
5c714bf0397be4c5251a66ec,1,3,梨园,北京,通州,415,南 北,1,近地铁 集中供暖 随时看房,整租 · 五所家属院   空房出租  交通方便,39.891343,3室1厅1卫,116.671983,https://m.lianjia.com/chuzu/bj/zufang/BJ2006393090834964480.html,79,3500,元/月,五所家属院,整租
5c7144cc397be4c5251a44ac,1,2,牡丹园,北京,海淀,123,东南,1,近地铁 集中供暖 新上,花园公寓 2室1厅 9800元,39.983461,2室1厅1卫,116.377339,https://m.lianjia.com/chuzu/bj/zufang/BJ2193979408069697536.html,82,9800,元/月,花园公寓,整租
5c72b08a397be4c5251e3385,1,2,朝阳门外,北京,朝阳,776,南 北,2,近地铁 集中供暖 新上,麒麟公馆 2室2厅 21000元,39.926894,2室2厅1卫,116.444943,https://m.lianjia.com/chuzu/bj/zufang/BJ2196297445313347584.html,96,21000,元/月,麒麟公馆,整租
5c7147b0397be4c5251a5258,1,3,方庄,北京,朝阳,410,西 北,2,近地铁 精装 集中供暖,整租 · 芳群园三区精装大三居  近地铁交通方便,39.866533,3室2厅1卫,116.432429,https://m.lianjia.com/chuzu/bj/zufang/BJ2156410754402615296.html,112,9000,元/月,芳群园三区,整租
5c714d30397be4c5251a6d02,1,3,马驹桥,北京,通州,,南,1,集中供暖 随时看房,融科香雪兰溪 3室1厅 4500元,39.749119,3室1厅1卫,116.542892,https://m.lianjia.com/chuzu/bj/zufang/BJ2094780123512848384.html,89,4500,元/月,融科香雪兰溪,整租
5c71245f397be4c52519f87d,1,3,东直门,北京,朝阳,278,南 北,1,近地铁 集中供暖,十字坡西里 3室1厅 9800元,39.945375,3室1厅1卫,116.444345,https://m.lianjia.com/chuzu/bj/zufang/BJ2194167710760304640.html,60,9800,元/月,十字坡西里,整租
5c7133aa397be4c5251a10fa,1,1,亚运村,北京,朝阳,126,东南,1,近地铁 精装 集中供暖 新上,整租 ·   高品质精装修一居，配套齐全，东南朝向,40.003413,1室1厅1卫,116.409266,https://m.lianjia.com/chuzu/bj/zufang/BJ2196989154879864832.html,45,5600,元/月,慧忠里,整租
5c712d04397be4c5251a00d0,1,2,陶然亭,北京,西城,248,南 北,1,近地铁 集中供暖,儒福里 2室1厅 7000元,39.885767,2室1厅1卫,116.382069,https://m.lianjia.com/chuzu/bj/zufang/BJ2177238347188551680.html,69,7000,元/月,儒福里,整租
5c72ba59397be4c5251e4bf1,2,3,双桥,北京,朝阳,828,南,1,精装 双卫生间 随时看房,整租 · 艺水芳园精装三居两卫，有钥匙，看房方便 随时入住,39.910974,3室1厅2卫,116.569545,https://m.lianjia.com/chuzu/bj/zufang/BJ2154071635638878208.html,119,8600,元/月,艺水芳园,整租
5c712e59397be4c5251a029f,4,4,金融街,北京,西城,657,南 北,2,近地铁 精装 集中供暖,整租 · 西城晶华大四居 可居家可办公 看房方便,39.927054,4室2厅4卫,116.372543,https://m.lianjia.com/chuzu/bj/zufang/BJ2040571753196945408.html,192,41000,元/月,西城晶华,整租
5c715e02397be4c5251aa701,1,1,石门营,北京,门头沟,447,南,1,近地铁,石门营新区六区一居室价格能谈看房方便。,39.890387,1室1厅1卫,116.110451,https://m.lianjia.com/chuzu/bj/zufang/BJ2079372945851432960.html,48,2000,元/月,石门营新区六区,整租
5c715eea397be4c5251aab72,1,2,滨河西区,北京,门头沟,,南,1,集中供暖 随时看房,大一居，采光很好，拎包入住，随时看房,39.941152,2室1厅1卫,116.117724,https://m.lianjia.com/chuzu/bj/zufang/BJ2175874182192037888.html,59,3100,元/月,皓月园,整租
5c72ae6b397be4c5251e2e02,1,1,北苑,北京,朝阳,720,西南,1,近地铁 精装 集中供暖 新上 随时看房,整租 · 北苑家园望春园 1室1厅 6600元,40.052808,1室1厅1卫,116.42537,https://m.lianjia.com/chuzu/bj/zufang/BJ2189595833065021440.html,76,6600,元/月,北苑家园望春园,整租
5c712479397be4c52519f89c,2,2,东直门,北京,朝阳,604,西北,2,近地铁 集中供暖,万国城MOMA 2室2厅 23000元,39.954789,2室2厅2卫,116.444857,https://m.lianjia.com/chuzu/bj/zufang/BJ2189721425886593024.html,145,23000,元/月,万国城MOMA,整租
5c72b6df397be4c5251e4308,1,1,建国门外,北京,朝阳,834,西,1,近地铁 精装 随时看房,整租 · 东二环 精装修正规一居室 可以拎包入住,39.910913,1室1厅1卫,116.450152,https://m.lianjia.com/chuzu/bj/zufang/BJ2165086951919583232.html,69,9000,元/月,美华世纪,整租
5c714dc9397be4c5251a6fec,1,2,临河里,北京,通州,996,东南,1,精装 集中供暖 随时看房,整租 · 华远铭悦 2室1厅 4200元,39.878396,2室1厅1卫,116.703076,https://m.lianjia.com/chuzu/bj/zufang/BJ2173834708776402944.html,77,4200,元/月,华远铭悦,整租
5c71530e397be4c5251a8984,2,3,黄村北,北京,大兴,916,南 北,1,精装 集中供暖 双卫生间,整租 ·    香海园精装三居，家具家电齐全，干净通透,39.781506,3室1厅2卫,116.325341,https://m.lianjia.com/chuzu/bj/zufang/BJ2192728279281311744.html,123,7500,元/月,顺驰领海,整租
5c71256f397be4c52519f9dd,1,2,广安门,北京,西城,563,东,1,近地铁 精装 集中供暖 新上,整租 · 西豪逸景 2室1厅 8500元,39.898284,2室1厅1卫,116.348379,https://m.lianjia.com/chuzu/bj/zufang/BJ2164941889281720320.html,73,8500,元/月,西豪逸景,整租
5c714e73397be4c5251a7323,1,2,临河里,北京,通州,,南 北,1,集中供暖 随时看房,整租 · 7090小区南北通透2号楼的两居室 看房随时哟,39.888054,2室1厅1卫,116.70811,https://m.lianjia.com/chuzu/bj/zufang/BJ2079449910608142336.html,89,4200,元/月,金隅七零九零,整租
5c71578c397be4c5251a971f,2,2,后沙峪,北京,顺义,,南 北,2,双卫生间,整租 · 青岚花园 2室2厅 4600元,40.124616,2室2厅2卫,116.54955,https://m.lianjia.com/chuzu/bj/zufang/BJ2177942552601165824.html,112,4600,元/月,青岚花园,整租
5c71313a397be4c5251a07e2,1,2,三元桥,北京,朝阳,775,南,1,近地铁 集中供暖 新上,三源里北小街 2室1厅 7500元,39.961727,2室1厅1卫,116.461519,https://m.lianjia.com/chuzu/bj/zufang/BJ2192604085075574784.html,56,7500,元/月,三源里北小街,整租
5c713263397be4c5251a0c41,1,2,甜水园,北京,朝阳,448,南,1,近地铁 精装 集中供暖 随时看房,整租 · 六里屯东里 2室1厅 6200元,39.936639,2室1厅1卫,116.491073,https://m.lianjia.com/chuzu/bj/zufang/BJ2162220216833556480.html,55,6200,元/月,六里屯东里,整租
5c713fcf397be4c5251a2c35,1,2,公主坟,北京,海淀,723,南,1,近地铁 集中供暖 新上 随时看房,整租 ·   万寿路 翠微西里 两个卧室朝南,39.923826,2室1厅1卫,116.302604,https://m.lianjia.com/chuzu/bj/zufang/BJ2195460001760550912.html,56,6500,元/月,翠微西里,整租
5c715761397be4c5251a961f,1,1,后沙峪,北京,顺义,,北,0,精装 集中供暖 随时看房,整租 · 中粮祥云国际生活区 1房间1卫 4500元,40.099551,1房间1卫,116.541069,https://m.lianjia.com/chuzu/bj/zufang/BJ2125839017445965824.html,54,4500,元/月,中粮祥云国际生活区,整租
5c71340b397be4c5251a1260,1,1,北苑,北京,朝阳,370,南,0,近地铁 精装 集中供暖 新上 随时看房,整租 ·   朝阳区北苑家园旭辉奥都随时可看精装修整洁数舒适,40.051429,1房间1卫,116.423214,https://m.lianjia.com/chuzu/bj/zufang/BJ2194972408879267840.html,51,5400,元/月,旭辉奥都,整租
5c7144af397be4c5251a4422,1,1,二里庄,北京,海淀,,南,1,集中供暖 新上 随时看房,整租 ·  二里庄 志新村 电梯南向一居室 可以长租,39.995227,1室1厅1卫,116.374459,https://m.lianjia.com/chuzu/bj/zufang/BJ2196160905988292608.html,51,5800,元/月,志新村,整租
5c714c64397be4c5251a6926,1,2,九棵树(家乐福),北京,通州,464,东 南,1,近地铁 集中供暖 随时看房,K2玉蘭湾 2室1厅 7200元,39.894058,2室1厅1卫,116.665685,https://m.lianjia.com/chuzu/bj/zufang/BJ2139565803018649600.html,90,7200,元/月,K2玉蘭湾,整租
5c7149cb397be4c5251a5ca2,1,1,岳各庄,北京,丰台,,东 南,1,精装 集中供暖 随时看房,整租 · 大成时代公馆 2房间1卫 8600元,39.894604,2房间1卫,116.277933,https://m.lianjia.com/chuzu/bj/zufang/BJ2158649141050212352.html,89,8600,元/月,大成时代公馆,整租
5c715e25397be4c5251aa76f,1,3,门头沟其它,北京,门头沟,,南 北,1,精装 集中供暖,整租 ·   梧桐苑精装三居 业主诚心 出租 小区环境好,39.904298,3室1厅1卫,116.150318,https://m.lianjia.com/chuzu/bj/zufang/BJ2166652700811329536.html,120,6000,元/月,梧桐苑栖凤园,整租
5c714393397be4c5251a3ec4,1,1,马甸,北京,朝阳,680,西南,1,近地铁 精装 集中供暖 随时看房,整租 · 牡丹园地铁金澳国际精装修 马甸可注册办公,39.977329,2房间1卫,116.385135,https://m.lianjia.com/chuzu/bj/zufang/BJ2159347414728196096.html,98,15500,元/月,金澳国际,整租
5c715167397be4c5251a8187,2,3,南邵,北京,昌平,,南 北,2,集中供暖 双卫生间 随时看房,整租 · 金科廊桥毛坯，一层+负两层，带小院,40.200688,3室2厅2卫,116.281016,https://m.lianjia.com/chuzu/bj/zufang/BJ2060655051697037312.html,151,10000,元/月,金科廊桥水岸,整租
5c72b2ff397be4c5251e3993,1,1,东大桥,北京,朝阳,742,北,1,近地铁 精装 集中供暖 随时看房,整租 ·  国贸精装一居室 家电齐全 拎包入住,39.920863,1室1厅1卫,116.459565,https://m.lianjia.com/chuzu/bj/zufang/BJ2165887462478987264.html,75,16500,元/月,世贸国际公寓,整租
5c715187397be4c5251a8222,1,3,东关,北京,昌平,,南 北,1,集中供暖 随时看房,整租 ·   京科苑干净装修，南北通透三居室,40.216336,3室1厅1卫,116.254212,https://m.lianjia.com/chuzu/bj/zufang/BJ2163746129190600704.html,87,3800,元/月,京科苑,整租
5c72b2d6397be4c5251e3947,1,2,大望路,北京,朝阳,360,南 北,1,近地铁,西大望路12号院 2室1厅 6600元,39.911848,2室1厅1卫,116.485085,https://m.lianjia.com/chuzu/bj/zufang/BJ2168729353184354304.html,55,6600,元/月,西大望路12号院,整租
5c7142f0397be4c5251a3bb0,1,1,西直门,北京,海淀,,西,1,精装 集中供暖,整租 · 智慧大厦 1室1厅 8000元,39.963352,1室1厅1卫,116.360104,https://m.lianjia.com/chuzu/bj/zufang/BJ2168680847182667776.html,57,8000,元/月,智慧大厦,整租
5c714d2a397be4c5251a6ce6,1,2,武夷花园,北京,通州,,南 北,1,集中供暖 随时看房,整租 · 武夷花园紫荆园 正规两居室 房间干净 拎包入住,39.925012,2室1厅1卫,116.708466,https://m.lianjia.com/chuzu/bj/zufang/BJ2087562195008225280.html,89,4200,元/月,紫荆园,整租
5c72b6b6397be4c5251e42a3,1,1,劲松,北京,朝阳,136,西,0,近地铁 随时看房,10号线地铁 楼下就是 拎包入住 设备齐全 随时看房,39.891382,1室0厅1卫,116.469439,https://m.lianjia.com/chuzu/bj/zufang/BJ2172908006449627136.html,49,6500,元/月,富顿,整租
5c71493c397be4c5251a59de,1,3,玉泉营,北京,丰台,725,南 北,1,近地铁 精装 集中供暖,整租 ·  玉泉营万柳园小区  南北通透两居室 精装空房 可短租,39.855605,3室1厅1卫,116.34141,https://m.lianjia.com/chuzu/bj/zufang/BJ2167088049551851520.html,72,5800,元/月,万柳园小区,整租
5c71560d397be4c5251a91c1,1,1,高米店南,北京,大兴,141,南 北,2,近地铁 精装 集中供暖,整租 ·   西斯莱公馆1居室带地下室出租 利用率还不错,39.770444,1室2厅1卫,116.344335,https://m.lianjia.com/chuzu/bj/zufang/BJ2163167534205894656.html,62,5600,元/月,新里.西斯莱公馆,整租
5c7125e9397be4c52519fa73,1,2,新街口,北京,西城,250,南 北,1,近地铁 精装 新上,整租 · 西城区 新街口 积水潭 南北通透 精装修 两居室,39.951025,2室1厅1卫,116.376346,https://m.lianjia.com/chuzu/bj/zufang/BJ2197134006284730368.html,70,9000,元/月,新街口西里一区,整租
5c7154a6397be4c5251a8d4b,2,3,高米店南,北京,大兴,,南 北,1,双卫生间 随时看房,整租 · 旭辉紫郡 南北通透 三居室 家具家电齐全,39.766366,3室1厅2卫,116.319424,https://m.lianjia.com/chuzu/bj/zufang/BJ2132289147774713856.html,177,8700,元/月,旭辉紫郡,整租
5c7157eb397be4c5251a98d4,1,1,良乡,北京,房山,505,南,1,近地铁 集中供暖,整租 · 旭辉双面落地窗，精装修，朝南采光好，配套齐全。,39.728172,2房间1卫,116.175752,https://m.lianjia.com/chuzu/bj/zufang/BJ2148378046460608512.html,38,2800,元/月,旭辉E天地,整租
5c713425397be4c5251a12c5,1,2,CBD,北京,朝阳,292,东南 北,2,近地铁 集中供暖 随时看房,整租 · 万达广场公寓 2室2厅 24000元,39.916424,2室2厅1卫,116.478715,https://m.lianjia.com/chuzu/bj/zufang/BJ2190314567161356288.html,126,24000,元/月,万达广场公寓,整租
5c71449e397be4c5251a43cb,1,2,西直门,北京,海淀,1078,西,1,近地铁 精装 集中供暖 新上,整租 ·  西直门交大嘉园长河湾动物园国图高梁桥斜街乙40号院,39.952841,2室1厅1卫,116.351655,https://m.lianjia.com/chuzu/bj/zufang/BJ2194904679752933376.html,78,12000,元/月,高梁桥斜街乙40号院,整租
5c714890397be4c5251a5696,2,2,卢沟桥,北京,丰台,,南 北,1,精装 集中供暖 双卫生间 随时看房,整租 ·   城3居改2居精装房，看房方便，拎包入住,39.839454,2室1厅2卫,116.250173,https://m.lianjia.com/chuzu/bj/zufang/BJ2163171421386178560.html,125,6400,元/月,沸城,整租
5c72b56e397be4c5251e3f31,1,2,惠新西街,北京,朝阳,262,南,1,近地铁 精装 集中供暖,整租 · 樱花园 两居室 朝南 拎包入住,39.980782,2室1厅1卫,116.428929,https://m.lianjia.com/chuzu/bj/zufang/BJ2149933282110734336.html,53,7200,元/月,樱花园,整租
5c72aea4397be4c5251e2e76,1,2,北苑,北京,朝阳,495,南,1,近地铁 精装 随时看房,整租 ·   北苑华贸城全南两居室 自住装修 人车分流 中央空调,40.054941,2室1厅1卫,116.4388,https://m.lianjia.com/chuzu/bj/zufang/BJ2165764714150232064.html,96,8300,元/月,华贸城,整租
5c714e77397be4c5251a7334,1,2,北关,北京,通州,,南,1,精装 集中供暖 随时看房,整租 · 精装两居，业主没住过，独立供暖，看房方便,39.956566,2室1厅1卫,116.658301,https://m.lianjia.com/chuzu/bj/zufang/BJ2099845376809893888.html,100,6000,元/月,新地国际家园,整租
5c72af00397be4c5251e2f81,2,3,北苑,北京,朝阳,645,南 北,2,近地铁 精装 集中供暖 双卫生间,整租 · 天润福熙大道 3室2厅 16000元,40.055139,3室2厅2卫,116.44233,https://m.lianjia.com/chuzu/bj/zufang/BJ2095424461359816704.html,141,16000,元/月,天润福熙大道,整租
5c714f16397be4c5251a763c,1,1,临河里,北京,通州,,东,1,精装 集中供暖,整租 · 金隅自由筑 挑高4.2米 看房提前约,39.881771,2房间1卫,116.703689,https://m.lianjia.com/chuzu/bj/zufang/BJ2133249996735660032.html,52,3500,元/月,金隅自由筑,整租
5c715bb2397be4c5251aa384,1,2,良乡,北京,房山,,南,1,集中供暖 随时看房,整租 · 文化路 全南向格局 两居室 业主诚租,39.741485,2室1厅1卫,116.150848,https://m.lianjia.com/chuzu/bj/zufang/BJ2173640562446434304.html,50,2000,元/月,文化路社区,整租
5c714e7b397be4c5251a7349,3,4,临河里,北京,通州,,南 北,2,精装 集中供暖,整租 · 金隅花石匠洋房 一层下跃带院子 奢华装修,39.880433,4室2厅3卫,116.708256,https://m.lianjia.com/chuzu/bj/zufang/BJ2106275384554430464.html,232,15000,元/月,金隅花石匠,整租
5c72b077397be4c5251e3352,1,2,常营,北京,朝阳,727,南,1,近地铁 集中供暖 新上,常楹公元 2室1厅 9800元,39.927743,2室1厅1卫,116.59911,https://m.lianjia.com/chuzu/bj/zufang/BJ2199329248962428928.html,87,9800,元/月,常楹公元,整租
5c712361397be4c52519f744,1,2,和平里,北京,朝阳,750,东,1,近地铁 精装 集中供暖 随时看房,整租 ·   和平里安定门盛德紫阙精装修新房二居室，随时入住,39.964901,2室1厅1卫,116.415435,https://m.lianjia.com/chuzu/bj/zufang/BJ2181792367785279488.html,120,18000,元/月,盛德大厦,整租
5c72b4d1397be4c5251e3de4,1,2,管庄,北京,朝阳,1053,南 北,1,近地铁 精装 集中供暖 随时看房,整租 · 管庄西里 2室1厅 5500元,39.921447,2室1厅1卫,116.594761,https://m.lianjia.com/chuzu/bj/zufang/BJ2173090596858896384.html,55,5500,元/月,管庄西里,整租
5c71410a397be4c5251a325e,1,2,紫竹桥,北京,海淀,151,南 北,1,近地铁 集中供暖 随时看房,整租 · 带电梯  双南大两居   装修好  长租,39.939017,2室1厅1卫,116.313423,https://m.lianjia.com/chuzu/bj/zufang/BJ2117794908940550144.html,93,10000,元/月,七贤村,整租
5c7149ce397be4c5251a5caf,1,3,菜户营,北京,丰台,,东北,1,集中供暖,鹏润家园 3室1厅 21000元,39.875618,3室1厅1卫,116.35335,https://m.lianjia.com/chuzu/bj/zufang/BJ2162754489139347456.html,186,21000,元/月,鹏润家园,整租
5c71257d397be4c52519f9ea,1,1,阜成门,北京,西城,3,南,1,近地铁 集中供暖 新上,展览路 1室1厅 5500元,39.931197,1室1厅1卫,116.351337,https://m.lianjia.com/chuzu/bj/zufang/BJ2190478100557733888.html,37,5500,元/月,展览路,整租
5c71429f397be4c5251a3a2d,2,3,紫竹桥,北京,海淀,9,南 西 北,2,近地铁 精装 集中供暖 双卫生间,整租 · 主语家园 白石桥南 带电梯 高楼层,39.939379,3室2厅2卫,116.330331,https://m.lianjia.com/chuzu/bj/zufang/BJ2140461556180189184.html,343,35000,元/月,主语家园,整租
5c715298397be4c5251a874f,1,2,旧宫,北京,大兴,,南 北,1,集中供暖 新上,旧宫新苑南区 2室1厅 5000元,39.803975,2室1厅1卫,116.462042,https://m.lianjia.com/chuzu/bj/zufang/BJ2196064668907208704.html,84,5000,元/月,旧宫新苑南区,整租
5c72bc54397be4c5251e50ae,1,2,望京,北京,朝阳,689,东南,1,近地铁 集中供暖,佳境天城 2室1厅 14000元,39.986183,2室1厅1卫,116.483207,https://m.lianjia.com/chuzu/bj/zufang/BJ2157837873041383424.html,126,14000,元/月,佳境天城,整租
5c7154e4397be4c5251a8e1e,2,3,枣园,北京,大兴,831,南 北,2,近地铁 集中供暖 随时看房,丽园A区 3室2厅 7000元,39.760596,3室2厅2卫,116.326541,https://m.lianjia.com/chuzu/bj/zufang/BJ2163169838715895808.html,155,7000,元/月,丽园A区,整租
5c714708397be4c5251a4f1c,1,1,马家堡,北京,丰台,412,西,0,近地铁 随时看房,整租 · 左右坊 1室0厅 4500元,39.847498,1室0厅1卫,116.377942,https://m.lianjia.com/chuzu/bj/zufang/BJ2176052044496896000.html,36,4500,元/月,左右坊,整租
5c7145af397be4c5251a48a8,1,2,刘家窑,北京,丰台,166,南,1,近地铁 集中供暖,整租 ·      刘家窑地铁两居室，交通便利，家具家电齐全,39.862947,2室1厅1卫,116.422817,https://m.lianjia.com/chuzu/bj/zufang/BJ2191730959982788608.html,55,5200,元/月,南三环中路,整租
5c712583397be4c52519f9f0,1,2,木樨地,北京,西城,1179,南 北,1,集中供暖 新上 随时看房,整租 · 白云观 2室1厅 7500元,39.904679,2室1厅1卫,116.352941,https://m.lianjia.com/chuzu/bj/zufang/BJ2192475253287436288.html,74,7500,元/月,白云观,整租
5c715e68397be4c5251aa8cf,1,2,大峪,北京,门头沟,,南 北,1,集中供暖 随时看房,新桥路小区 2室1厅 2500元,39.944281,2室1厅1卫,116.108486,https://m.lianjia.com/chuzu/bj/zufang/BJ2162087229580132352.html,64,2500,元/月,新桥路小区,整租
5c7145b9397be4c5251a48d6,2,2,玉泉营,北京,丰台,1047,南,1,精装 集中供暖 双卫生间 新上 随时看房,整租 · 优筑 2室1厅 7500元,39.858227,2室1厅2卫,116.32442,https://m.lianjia.com/chuzu/bj/zufang/BJ2178881452098732032.html,100,7500,元/月,优筑,整租
5c715072397be4c5251a7ce2,1,2,沙河,北京,昌平,,南 北,1,集中供暖 新上,整租 · 北街家园八区 2室1厅 4200元,40.170928,2室1厅1卫,116.265774,https://m.lianjia.com/chuzu/bj/zufang/BJ2196414571714191360.html,88,4200,元/月,北街家园八区,整租
5c71400c397be4c5251a2d63,1,1,清河,北京,海淀,870,南,1,近地铁 集中供暖 新上 随时看房,整租 · 永泰庄附近中间楼层，朝南向，精装一居室，可拎包入住,40.037772,1室1厅1卫,116.358984,https://m.lianjia.com/chuzu/bj/zufang/BJ2194661832051138560.html,41,5200,元/月,永泰庄6号院,整租
5c713255397be4c5251a0c0c,2,2,北苑,北京,朝阳,741,东南,1,近地铁 精装 集中供暖 双卫生间 随时看房,整租 · 北苑家园茉藜园 2室1厅 7900元,40.045549,2室1厅2卫,116.430562,https://m.lianjia.com/chuzu/bj/zufang/BJ2190338205621436416.html,98,7900,元/月,北苑家园茉藜园,整租
5c714096397be4c5251a3012,1,1,北太平庄,北京,海淀,779,南,1,近地铁 集中供暖 随时看房,整租 ·    花园路14号院 牡丹园 西土城 庚坊国际 北医三院,39.977641,1室1厅1卫,116.373644,https://m.lianjia.com/chuzu/bj/zufang/BJ2162330078649270272.html,36,5500,元/月,花园路14号院,整租
5c715e40397be4c5251aa7e5,1,1,大峪,北京,门头沟,,南,0,集中供暖 新上 随时看房,惠民家园 1室0厅 2700元,39.944701,1室0厅1卫,116.100772,https://m.lianjia.com/chuzu/bj/zufang/BJ2196974807550001152.html,51,2700,元/月,惠民家园,整租
5c71571d397be4c5251a9512,1,1,亦庄,北京,亦庄开发区,204,东,1,近地铁 集中供暖 新上 随时看房,林肯公园 2房间1卫 5300元,39.810115,2房间1卫,116.497474,https://m.lianjia.com/chuzu/bj/zufang/BJ2196817480851398656.html,49,5300,元/月,林肯公园,整租
5c714342397be4c5251a3d4c,2,3,六里桥,北京,海淀,678,南 北,2,近地铁 精装 集中供暖 双卫生间,整租 · 精装三居室，业主诚心出租，看房方便,39.900525,3室2厅2卫,116.315028,https://m.lianjia.com/chuzu/bj/zufang/BJ2092548494517600256.html,186,18500,元/月,盛今佳园,整租
5c72b6ba397be4c5251e42b0,1,2,劲松,北京,朝阳,1042,南 北,1,精装 集中供暖,整租 · 广和南里二条精装修两居室随时入住随时看房,39.891295,2室1厅1卫,116.455989,https://m.lianjia.com/chuzu/bj/zufang/BJ2090986737269743616.html,58,5800,元/月,广和南里二条,整租
5c714472397be4c5251a42f4,0,1,田村,北京,海淀,1127,东,0,,整租 · 雅世合金公寓 地下车位出租 随时看房 不能住人,39.933962,1室0厅0卫,116.272216,https://m.lianjia.com/chuzu/bj/zufang/BJ2146215160572805120.html,42,1000,元/月,雅世合金公寓,整租
5c7132ed397be4c5251a0e44,1,1,四惠,北京,朝阳,107,北,1,近地铁 精装 集中供暖 随时看房,整租 · 东恒时代一期正规一居室，采光好，面积大，拎包住。,39.915382,1室1厅1卫,116.501162,https://m.lianjia.com/chuzu/bj/zufang/BJ2178074403609247744.html,61,7000,元/月,东恒时代一期,整租
5c714c36397be4c5251a6850,3,3,马驹桥,北京,通州,,南 北,2,集中供暖 新上,合生世界花园 3室2厅 5500元,39.745913,3室2厅3卫,116.561925,https://m.lianjia.com/chuzu/bj/zufang/BJ2194781346629689344.html,155,5500,元/月,合生世界花园,整租
5c7149c1397be4c5251a5c70,2,4,菜户营,北京,丰台,,西北,2,集中供暖 双卫生间,整租 ·   西南二环菜户营鹏润家园四居室长期出租,39.875618,4室2厅2卫,116.35335,https://m.lianjia.com/chuzu/bj/zufang/BJ2133290247499554816.html,179,33000,元/月,鹏润家园,整租
5c714604397be4c5251a4a37,1,1,科技园区,北京,丰台,1139,东北,0,近地铁 集中供暖 随时看房,整租 · ★设计师广场 近地铁 拎包入住 近天坛医院★,39.844912,1室0厅1卫,116.291708,https://m.lianjia.com/chuzu/bj/zufang/BJ2162330884466802688.html,48,4100,元/月,设计师广场,整租
5c714d3b397be4c5251a6d3b,2,2,马驹桥,北京,通州,,东南,1,集中供暖 随时看房,珠江逸景 2室1厅 3800元,39.746067,2室1厅2卫,116.549499,https://m.lianjia.com/chuzu/bj/zufang/BJ2115079694285553664.html,93,3800,元/月,珠江逸景,整租
5c714204397be4c5251a3734,1,2,西直门,北京,海淀,706,东 西,1,近地铁,整租 · 远洋风景 2室1厅 9000元,39.952363,2室1厅1卫,116.367174,https://m.lianjia.com/chuzu/bj/zufang/BJ2152068597143576576.html,81,9000,元/月,远洋风景,整租
5c71550e397be4c5251a8eb3,2,4,西红门,北京,大兴,,南 北,2,精装 集中供暖 双卫生间 随时看房,整租 · 九龙家园南区 4室2厅 12000元 错层,39.803747,4室2厅2卫,116.350986,https://m.lianjia.com/chuzu/bj/zufang/BJ2176755602410446848.html,183,12000,元/月,九龙家园南区,整租
5c71444b397be4c5251a4232,1,2,紫竹桥,北京,海淀,1162,南 北,1,精装 集中供暖,整租 · 紫竹桥 北无宿舍 车道沟4号院 精装两居室 南北通透,39.95358,2室1厅1卫,116.311376,https://m.lianjia.com/chuzu/bj/zufang/BJ2144149681070931968.html,55,7200,元/月,北无宿舍,整租
5c7119ca397be4c52519f02e,1,2,东直门,北京,朝阳,,南,0,近地铁 精装 集中供暖 新上,整租 · 东直门外大街(东城） 2室0厅 8000元,39.947027,2室0厅1卫,116.448231,https://m.lianjia.com/chuzu/bj/zufang/BJ2194798569943744512.html,66,8000,元/月,东直门外大街(东城）,整租
5c713385397be4c5251a106e,1,1,十里堡,北京,朝阳,821,西,0,近地铁 精装 集中供暖 新上,整租 · 东恒时代三期 1室0厅 6800元,39.918042,1室0厅1卫,116.508558,https://m.lianjia.com/chuzu/bj/zufang/BJ2196281334228320256.html,54,6800,元/月,东恒时代三期,整租
5c713463397be4c5251a13b2,1,1,大望路,北京,朝阳,476,西,1,近地铁 精装 集中供暖 新上,整租 · 西大望路金港国际西向精装小一居,39.903711,1室1厅1卫,116.484696,https://m.lianjia.com/chuzu/bj/zufang/BJ2197080115274858496.html,66,8500,元/月,金港国际,整租
5c712f5b397be4c5251a03ec,1,2,右安门内,北京,西城,,南 北,1,集中供暖 随时看房,整租 · 右安门西街     精装两居  家具家电齐全,39.876062,2室1厅1卫,116.366352,https://m.lianjia.com/chuzu/bj/zufang/BJ2102037312891527168.html,54,5100,元/月,右安门西街,整租
5c714338397be4c5251a3d1a,3,5,西二旗,北京,海淀,421,南,1,近地铁 精装,整租 · 西二旗领秀新硅谷自住型联排别墅,40.060937,5室1厅3卫,116.315943,https://m.lianjia.com/chuzu/bj/zufang/BJ1939814411548237824.html,297,35000,元/月,领秀新硅谷1号院,整租
5c715765397be4c5251a9638,1,1,后沙峪,北京,顺义,,北,1,集中供暖 随时看房,整租 · 中粮祥云国际生活区 2房间1卫 4500元,40.099551,2房间1卫,116.541069,https://m.lianjia.com/chuzu/bj/zufang/BJ2133152348925861888.html,54,4500,元/月,中粮祥云国际生活区,整租
5c715633397be4c5251a9230,0,1,郁花园,北京,大兴,,北,0,随时看房,整租 · 华远西红世 1房间0卫 2400元,39.77701,1房间0卫,116.36446,https://m.lianjia.com/chuzu/bj/zufang/BJ2105689251617447936.html,48,2400,元/月,华远西红世,整租
5c714cba397be4c5251a6ac9,1,1,武夷花园,北京,通州,,北,0,精装 集中供暖 随时看房,整租 · 月亮城堡 精装修开间 随时可看,39.925912,1室0厅1卫,116.685667,https://m.lianjia.com/chuzu/bj/zufang/BJ2085443850398343168.html,58,3600,元/月,月亮城堡,整租
5c715533397be4c5251a8f3c,1,2,黄村中,北京,大兴,,南 北,1,随时看房,整租 · 新安里 2室1厅 3500元,39.745873,2室1厅1卫,116.36203,https://m.lianjia.com/chuzu/bj/zufang/BJ2083208870129573888.html,89,3500,元/月,新安里,整租
5c715bda397be4c5251aa3f2,1,2,良乡,北京,房山,,南 北,2,集中供暖 随时看房,整租 · 中楼层简装  南北通透 两居室 可拎包入住,39.738936,2室2厅1卫,116.156297,https://m.lianjia.com/chuzu/bj/zufang/BJ2131850757669134336.html,83,2400,元/月,东关家园,整租
5c715b56397be4c5251aa26a,1,2,良乡,北京,房山,,南 北,1,集中供暖 新上,西潞园二里 2室1厅 3200元,39.740429,2室1厅1卫,116.135077,https://m.lianjia.com/chuzu/bj/zufang/BJ2196856300234096640.html,65,3200,元/月,西潞园二里,整租
5c715342397be4c5251a8a71,1,2,大兴其它,北京,大兴,1138,南 北,1,近地铁 集中供暖 随时看房,整租 · 红星养鸡场宿舍楼 2室1厅 2500元,39.781787,2室1厅1卫,116.428439,https://m.lianjia.com/chuzu/bj/zufang/BJ2136193162962804736.html,52,2500,元/月,红星养鸡场宿舍楼,整租
5c715001397be4c5251a7ac3,1,2,立水桥,北京,朝阳,519,南,1,近地铁 随时看房,整租 · 合立方精装两居室，户型紧凑，采光好~短租到六月,40.063191,2室1厅1卫,116.416572,https://m.lianjia.com/chuzu/bj/zufang/BJ2089667626892017664.html,72,6500,元/月,合立方,整租
5c71369d397be4c5251a19d4,2,2,双井,北京,朝阳,588,东 西,1,近地铁 精装 集中供暖 双卫生间 随时看房,整租 · 东西通透 闹中取静  两居两卫 价格合理 安静采光好,39.905054,2室1厅2卫,116.464603,https://m.lianjia.com/chuzu/bj/zufang/BJ2142633700867973120.html,100,12000,元/月,合生国际花园,整租
5c715d0a397be4c5251aa4ea,1,2,良乡,北京,房山,898,东 南 北,1,随时看房,整租 ·   简单干净两居室，有电梯，房子敞亮视野好,39.726495,2室1厅1卫,116.154608,https://m.lianjia.com/chuzu/bj/zufang/BJ2176612738200248320.html,91,3300,元/月,瑞雪春堂,整租
5c715d24397be4c5251aa534,1,3,良乡,北京,房山,1171,南,1,精装 集中供暖,整租 · 伟业嘉园西里 3室1厅 2900元 复式,39.738534,3室1厅1卫,116.16711,https://m.lianjia.com/chuzu/bj/zufang/BJ2124534849527627776.html,55,2900,元/月,伟业嘉园西里,整租
5c714e15397be4c5251a7151,1,1,北关,北京,通州,,北,1,精装 集中供暖 随时看房,整租 · 新北京中心 1室1厅 5700元,39.924748,1室1厅1卫,116.664666,https://m.lianjia.com/chuzu/bj/zufang/BJ2120211168613646336.html,43,5700,元/月,新北京中心,整租
5c714b71397be4c5251a6470,1,1,梨园,北京,通州,7,南,1,近地铁 集中供暖 随时看房,时尚街区东区 1室1厅 4300元,39.888623,1室1厅1卫,116.674125,https://m.lianjia.com/chuzu/bj/zufang/BJ2191134264396365824.html,61,4300,元/月,时尚街区东区,整租
5c72b9e9397be4c5251e4aae,2,2,双井,北京,朝阳,643,东,1,近地铁 集中供暖 双卫生间 随时看房,整租 · 上下两层办公 可注册 单层72平 东向观公园  诚意出租,39.8981,3房间2卫,116.476134,https://m.lianjia.com/chuzu/bj/zufang/BJ2115091818038165504.html,72,15500,元/月,首城国际中心,整租
5c71323f397be4c5251a0bbc,1,1,朝阳门外,北京,朝阳,1013,东,1,近地铁 集中供暖 随时看房,整租 · 日坛国际公寓 1室1厅 13000元,39.926007,1室1厅1卫,116.44957,https://m.lianjia.com/chuzu/bj/zufang/BJ2189660407168778240.html,74,13000,元/月,日坛国际公寓,整租
5c72ae3f397be4c5251e2d71,2,3,奥林匹克公园,北京,朝阳,295,西南,1,近地铁 双卫生间,整租 · 媒体村天畅园大三居出租业主允许办公随时看房随时签约,40.03926,3室1厅2卫,116.422621,https://m.lianjia.com/chuzu/bj/zufang/BJ2126512151723253760.html,183,16500,元/月,天畅园,整租
5c714730397be4c5251a4fe5,1,1,宋家庄,北京,丰台,37,北,1,近地铁 精装 集中供暖 随时看房,整租 ·   宋家庄附近，出行便利临近地铁公交等,39.852209,2房间1卫,116.436604,https://m.lianjia.com/chuzu/bj/zufang/BJ2191279171064840192.html,44,6000,元/月,万科红,整租
5c71254d397be4c52519f9ad,1,1,木樨地,北京,西城,67,南,1,近地铁 集中供暖 随时看房,整租 · 复兴门外大街 1室1厅 7500元,39.912912,1室1厅1卫,116.34688,https://m.lianjia.com/chuzu/bj/zufang/BJ2189701873131593728.html,49,7500,元/月,复兴门外大街,整租
5c72b1e9397be4c5251e36fd,2,3,朝阳公园,北京,朝阳,296,东北,2,近地铁 精装 双卫生间,整租 · 丽水嘉园 3室2厅 16300元,39.939299,3室2厅2卫,116.489739,https://m.lianjia.com/chuzu/bj/zufang/BJ2177300408098635776.html,133,16300,元/月,丽水嘉园,整租
5c72b233397be4c5251e378c,1,2,东直门,北京,朝阳,1190,南,1,集中供暖 随时看房,新源西里中街 2室1厅 7300元,39.95468,2室1厅1卫,116.452957,https://m.lianjia.com/chuzu/bj/zufang/BJ2181106993714954240.html,65,7300,元/月,新源西里中街,整租
5c71425a397be4c5251a38de,1,2,皂君庙,北京,海淀,917,南 北,1,精装 集中供暖 新上,整租 · 皂君东里 2室1厅 7900元,39.964408,2室1厅1卫,116.343001,https://m.lianjia.com/chuzu/bj/zufang/BJ2193906659930144768.html,57,7900,元/月,皂君东里,整租
5c715971397be4c5251a9eca,1,2,顺义城,北京,顺义,,南,1,精装 集中供暖 随时看房,整租 · 裕龙五区，正规两居，随时入住。,40.127185,2室1厅1卫,116.683117,https://m.lianjia.com/chuzu/bj/zufang/BJ2147013990482984960.html,97,4500,元/月,裕龙五区,整租
5c715095397be4c5251a7d82,1,3,东关,北京,昌平,,南 北,1,集中供暖 随时看房,整租 · 京科苑 3室1厅 4300元,40.216336,3室1厅1卫,116.254212,https://m.lianjia.com/chuzu/bj/zufang/BJ2128193550024974336.html,102,4300,元/月,京科苑,整租
5c7146c6397be4c5251a4dd5,1,1,六里桥,北京,丰台,393,南,1,近地铁 集中供暖 随时看房,整租 · 六里桥地铁9号线和10号线双线换乘，朝南正规一居室,39.888606,1室1厅1卫,116.309979,https://m.lianjia.com/chuzu/bj/zufang/BJ2160669181719355392.html,54,4800,元/月,六里桥10号院,整租
5c713414397be4c5251a127e,1,1,常营,北京,朝阳,66,南,0,近地铁 集中供暖 新上 随时看房,北京像素南区 1房间1卫 4500元,39.931519,1房间1卫,116.622063,https://m.lianjia.com/chuzu/bj/zufang/BJ2195458720945938432.html,43,4500,元/月,北京像素南区,整租
5c71470c397be4c5251a4f35,1,2,大红门,北京,丰台,447,南 北,1,近地铁 集中供暖 随时看房,整租 · 建欣苑三里 2室1厅 4800元,39.847018,2室1厅1卫,116.404498,https://m.lianjia.com/chuzu/bj/zufang/BJ2176715867596275712.html,66,4800,元/月,建欣苑三里,整租
5c715805397be4c5251a9959,1,3,长阳,北京,房山,1190,南,1,精装 集中供暖 随时看房,整租 · 合景领峰三居室 空房出租 集中供暖 看房方便,39.774016,3室1厅1卫,116.189825,https://m.lianjia.com/chuzu/bj/zufang/BJ2164280060373377024.html,87,3700,元/月,合景领峰,整租
5c7132ae397be4c5251a0d57,1,1,四惠,北京,朝阳,599,东北,1,近地铁 精装 集中供暖 新上,整租 · 东恒时代二期正规一居室出租，房屋内家电家具齐全。,39.918019,1室1厅1卫,116.505098,https://m.lianjia.com/chuzu/bj/zufang/BJ2163169272803893248.html,58,8300,元/月,东恒时代二期,整租
5c715d6f397be4c5251aa5d0,1,1,良乡,北京,房山,452,东,1,近地铁 集中供暖 随时看房,整租 · 远洋新仕界 2房间1卫 3100元,39.731011,2房间1卫,116.18749,https://m.lianjia.com/chuzu/bj/zufang/BJ2169426848810287104.html,40,3100,元/月,远洋新仕界,整租
5c714fd2397be4c5251a79d6,2,3,东关,北京,昌平,396,南 北,2,近地铁 集中供暖 双卫生间 新上,整租 · 果岭小镇 3室2厅 6500元,40.229588,3室2厅2卫,116.272241,https://m.lianjia.com/chuzu/bj/zufang/BJ2163169162199826432.html,152,6500,元/月,果岭小镇,整租
5c72af23397be4c5251e2ff1,1,2,北苑,北京,朝阳,403,东,1,近地铁 精装 集中供暖,整租 ·   朝阳北苑铁建广场东向两室 精装修不可注册,40.048622,3房间1卫,116.447271,https://m.lianjia.com/chuzu/bj/zufang/BJ2068517518913576960.html,79,9000,元/月,中国铁建广场,整租
5c72af2c397be4c5251e3010,1,1,北苑,北京,朝阳,1033,南,0,近地铁 精装 集中供暖,整租 · 乐想汇精装优质开间，大家多多推荐,40.05627,1房间1卫,116.445474,https://m.lianjia.com/chuzu/bj/zufang/BJ2142737681246339072.html,68,6500,元/月,乐想汇,整租
5c72af63397be4c5251e30b7,2,3,北工大,北京,朝阳,143,南 北,2,近地铁 精装 集中供暖 双卫生间 随时看房,整租 ·  禧福汇精装高楼层南北通透三居室业主诚意出租,39.88914,3室2厅2卫,116.483653,https://m.lianjia.com/chuzu/bj/zufang/BJ2164317196229558272.html,140,15500,元/月,禧福汇,整租
5c71508b397be4c5251a7d55,2,3,北七家,北京,昌平,,南 北,1,集中供暖 随时看房,金色漫香苑 3室1厅 7200元,40.136715,3室1厅2卫,116.433148,https://m.lianjia.com/chuzu/bj/zufang/BJ2112870781481385984.html,136,7200,元/月,金色漫香苑,整租
5c72aeab397be4c5251e2e8e,1,2,北苑,北京,朝阳,1160,西南,2,近地铁 集中供暖 随时看房,整租 · 北苑家园绣菊园 2室2厅 7100元,40.050579,2室2厅1卫,116.431102,https://m.lianjia.com/chuzu/bj/zufang/BJ2173151044136075264.html,111,7100,元/月,北苑家园绣菊园,整租
5c714d9c397be4c5251a6f18,1,2,九棵树(家乐福),北京,通州,,南 北,1,精装 随时看房,整租 · 阿尔法社区精装南北通透两居室家具齐全拎包入住,39.876941,2室1厅1卫,116.65235,https://m.lianjia.com/chuzu/bj/zufang/BJ2163168916212285440.html,88,5000,元/月,阿尔法社区二期,整租
5c714693397be4c5251a4cdc,1,2,赵公口,北京,丰台,321,西南,1,近地铁 集中供暖 随时看房,整租 · 光彩家园 2室1厅 5700元,39.851679,2室1厅1卫,116.41718,https://m.lianjia.com/chuzu/bj/zufang/BJ2137692798407942144.html,72,5700,元/月,光彩家园,整租
5c71492a397be4c5251a5986,1,1,西罗园,北京,丰台,,东,1,集中供暖,整租 · 汇达公寓 1室1厅 5500元,39.866951,1室1厅1卫,116.397152,https://m.lianjia.com/chuzu/bj/zufang/BJ2157699983837495296.html,67,5500,元/月,汇达公寓,整租
5c712f15397be4c5251a0399,1,3,宣武门,北京,西城,643,南 西,1,近地铁 集中供暖,整租 ·    椿树园      西南向三居室,39.900454,3室1厅1卫,116.385168,https://m.lianjia.com/chuzu/bj/zufang/BJ2170828893907861504.html,119,15000,元/月,椿树园,整租
5c714b51397be4c5251a63d9,3,3,鲁谷,北京,石景山,,南 北,2,精装 集中供暖 随时看房,整租 · 紫御国际 5房间3卫 14000元 复式,39.90865,5房间3卫,116.228643,https://m.lianjia.com/chuzu/bj/zufang/BJ2173861424739663872.html,84,14000,元/月,紫御国际,整租
5c72af30397be4c5251e301d,2,3,北苑,北京,朝阳,645,东 南 北,1,近地铁 精装 集中供暖 双卫生间,整租 · 天润福熙大道 3室1厅 15500元,40.055139,3室1厅2卫,116.44233,https://m.lianjia.com/chuzu/bj/zufang/BJ2162800971833950208.html,160,15500,元/月,天润福熙大道,整租
5c714716397be4c5251a4f64,2,3,西罗园,北京,丰台,682,南 北,1,近地铁 集中供暖 随时看房,珠江骏景中区 3室1厅 8500元,39.859787,3室1厅2卫,116.402983,https://m.lianjia.com/chuzu/bj/zufang/BJ2179003018630922240.html,134,8500,元/月,珠江骏景中区,整租
5c712795397be4c52519fcab,1,3,月坛,北京,西城,1175,南 西,1,精装 集中供暖 新上,整租 · 三里河一区3号院 3室1厅 18800元,39.922071,3室1厅1卫,116.348983,https://m.lianjia.com/chuzu/bj/zufang/BJ2197677549562101760.html,99,18800,元/月,三里河一区3号院,整租
5c71306f397be4c5251a0554,1,2,国展,北京,朝阳,1158,东 西,1,集中供暖 随时看房,左家庄西街5号院 2室1厅 6800元,39.956506,2室1厅1卫,116.446312,https://m.lianjia.com/chuzu/bj/zufang/BJ2193222495522258944.html,51,6800,元/月,左家庄西街5号院,整租
5c72b6fb397be4c5251e4357,2,3,建国门外,北京,朝阳,,南 北,2,集中供暖 新上,中海枫丹公馆 3室2厅 30000元,39.909694671631,3室2厅2卫,116.44697570801,https://m.lianjia.com/chuzu/bj/zufang/BJ2199309463532879872.html,143,30000,元/月,中海枫丹公馆,整租
5c712326397be4c52519f6fe,2,3,地安门,北京,东城,842,南,1,近地铁 精装 双卫生间,整租 ·   交道口 西公街两层小楼 精装大三居 诚租居家租户,39.950088,3室1厅2卫,116.413636,https://m.lianjia.com/chuzu/bj/zufang/BJ2147050180220813312.html,48,16000,元/月,西公街,整租
5c71574c397be4c5251a95a5,2,3,亦庄,北京,亦庄开发区,204,南 北,2,近地铁 集中供暖 随时看房,林肯公园 3室2厅 12500元,39.810115,3室2厅2卫,116.497474,https://m.lianjia.com/chuzu/bj/zufang/BJ2130303060768473088.html,152,12500,元/月,林肯公园,整租
5c714b68397be4c5251a6445,1,2,鲁谷,北京,石景山,,南 北,1,精装,整租 · 南北通透精装两居室 家电家具齐全 拎包入住,39.905011,2室1厅1卫,116.25065,https://m.lianjia.com/chuzu/bj/zufang/BJ2162122207030427648.html,95,8500,元/月,雕塑园南街18号院,整租
5c72b4c4397be4c5251e3db8,1,2,管庄,北京,朝阳,,南,1,,杨闸新村 2室1厅 5500元,39.917316,2室1厅1卫,116.614985,https://m.lianjia.com/chuzu/bj/zufang/BJ2192569444663042048.html,85,5500,元/月,杨闸新村,整租
5c7149f5397be4c5251a5d5f,1,1,赵公口,北京,丰台,658,西,1,近地铁 集中供暖 随时看房,彩虹城四区 1室1厅 4500元,39.845427,1室1厅1卫,116.419618,https://m.lianjia.com/chuzu/bj/zufang/BJ2180836373697658880.html,45,4500,元/月,彩虹城四区,整租
5c715182397be4c5251a820b,1,3,天通苑,北京,昌平,802,西南,1,近地铁 精装 集中供暖,整租 ·   天通中苑二区 精装修 可以注册办公,40.075524,4房间1卫,116.420933,https://m.lianjia.com/chuzu/bj/zufang/BJ2162231017854222336.html,168,16000,元/月,天通中苑二区,整租
5c71499d397be4c5251a5bcd,1,2,西红门,北京,丰台,,南 北,1,集中供暖,阳光星苑 2室1厅 4800元,39.799961,2室1厅1卫,116.377536,https://m.lianjia.com/chuzu/bj/zufang/BJ2169322218893615104.html,65,4800,元/月,阳光星苑,整租
5c713326397be4c5251a0f13,1,1,甘露园,北京,朝阳,,西,0,随时看房,天天朝阳 1室0厅 4500元,39.923147,1室0厅1卫,116.516087,https://m.lianjia.com/chuzu/bj/zufang/BJ2189602148369563648.html,38,4500,元/月,天天朝阳,整租
5c715e63397be4c5251aa8b3,1,1,滨河西区,北京,门头沟,,南,1,随时看房,迎晖北苑 1室1厅 2000元,39.926379,1室1厅1卫,116.125988,https://m.lianjia.com/chuzu/bj/zufang/BJ2157142358376841216.html,41,2000,元/月,迎晖北苑,整租
5c71586c397be4c5251a9b67,1,1,顺义其它,北京,顺义,,南 北,1,精装 集中供暖 新上 随时看房,整租 ·   馨港三区 精装一居 干净整洁 拎包入住,40.037646,1室1厅1卫,116.675955,https://m.lianjia.com/chuzu/bj/zufang/BJ2193374337498103808.html,68,3000,元/月,馨港庄园三区,整租
5c72b854397be4c5251e467c,1,2,三元桥,北京,朝阳,655,南 北,1,近地铁 集中供暖 新上,曙光里 2室1厅 7300元,39.971046,2室1厅1卫,116.457117,https://m.lianjia.com/chuzu/bj/zufang/BJ2195515419564457984.html,57,7300,元/月,曙光里,整租
5c714ee2397be4c5251a754c,2,1,临河里,北京,通州,,西,1,集中供暖 随时看房,金隅自由筑 2房间2卫 2800元,39.881771,2房间2卫,116.703689,https://m.lianjia.com/chuzu/bj/zufang/BJ2162979446783746048.html,52,2800,元/月,金隅自由筑,整租
5c714943397be4c5251a5a03,1,1,菜户营,北京,丰台,,西,1,精装 集中供暖 随时看房,整租 ·   莲花河 嘉莲苑  正规一室一厅,39.881161,1室1厅1卫,116.344224,https://m.lianjia.com/chuzu/bj/zufang/BJ2168086610724257792.html,70,6000,元/月,嘉莲苑,整租
5c7140e1397be4c5251a318e,1,2,玉泉路,北京,海淀,1185,南 北,1,集中供暖 新上,西四环中简楼层南北两居，家具家电齐全拎包入住,39.927867,2室1厅1卫,116.264969,https://m.lianjia.com/chuzu/bj/zufang/BJ2196784835576733696.html,69,6000,元/月,玉海园五里,整租
5c714689397be4c5251a4ca7,1,1,科技园区,北京,丰台,356,西南,1,近地铁 精装 集中供暖 随时看房,整租 · 总部基地附近，怡海花园正规一居室,39.839115,1室1厅1卫,116.308663,https://m.lianjia.com/chuzu/bj/zufang/BJ2133067969512095744.html,72,6500,元/月,怡海花园富润园,整租
5c711969397be4c52519efac,1,1,安定门,北京,朝阳,579,东,1,近地铁 集中供暖 随时看房,青年湖东里精装修一居室可以长租,39.962564,1室1厅1卫,116.413053,https://m.lianjia.com/chuzu/bj/zufang/BJ2194125527663779840.html,50,6000,元/月,青年湖东里,整租
5c7149a7397be4c5251a5bfb,1,1,马家堡,北京,丰台,225,南,1,近地铁 精装 集中供暖,整租 · 城南大道 2房间1卫 6000元,39.838257,2房间1卫,116.375715,https://m.lianjia.com/chuzu/bj/zufang/BJ2177410149009072128.html,46,6000,元/月,城南大道,整租
5c712a20397be4c52519ffe1,1,2,新街口,北京,西城,220,南 北,1,近地铁 精装 随时看房,整租 · 新街口西里三区 2室1厅 7300元,39.949564,2室1厅1卫,116.372605,https://m.lianjia.com/chuzu/bj/zufang/BJ2158417950292312064.html,71,7300,元/月,新街口西里三区,整租
5c7141a8397be4c5251a3563,1,1,西三旗,北京,海淀,,西 北,1,精装 集中供暖 随时看房,整租 · 金隅翡丽爱公馆 1室1厅 5300元,40.071409,1室1厅1卫,116.382066,https://m.lianjia.com/chuzu/bj/zufang/BJ2170166035247013888.html,58,5300,元/月,金隅翡丽爱公馆,整租
5c72af6e397be4c5251e30d4,1,1,百子湾,北京,朝阳,586,南,0,近地铁 精装 集中供暖 新上,整租 · 离地铁近，可长租，随时拎包入住，家具家电齐全,39.901436,1室0厅1卫,116.51152,https://m.lianjia.com/chuzu/bj/zufang/BJ2198953293110050816.html,46,6000,元/月,沿海赛洛城,整租
5c71283a397be4c52519fd73,1,2,新街口,北京,西城,220,东,1,近地铁 随时看房,整租 · 新街口西里三区 2室1厅 7000元,39.949564,2室1厅1卫,116.372605,https://m.lianjia.com/chuzu/bj/zufang/BJ2150434233683296256.html,53,7000,元/月,新街口西里三区,整租
5c714a05397be4c5251a5da5,1,1,玉泉营,北京,丰台,580,北,1,近地铁 集中供暖,整租 · 万年花城三期 1室1厅 5800元,39.846371,1室1厅1卫,116.329405,https://m.lianjia.com/chuzu/bj/zufang/BJ2193513000189829120.html,65,5800,元/月,万年花城三期,整租
5c7140ad397be4c5251a308a,1,3,苏州桥,北京,海淀,511,南 北,1,近地铁 集中供暖 随时看房,整租 · 稻香园 3室1厅 11000元,39.986695,3室1厅1卫,116.308152,https://m.lianjia.com/chuzu/bj/zufang/BJ2181148485892440064.html,91,11000,元/月,稻香园,整租
5c7125b5397be4c52519fa33,1,2,马连道,北京,西城,969,南 北,1,近地铁 精装 集中供暖 新上,整租 · 红莲南里 2室1厅 6000元,39.884851,2室1厅1卫,116.340674,https://m.lianjia.com/chuzu/bj/zufang/BJ2194816244304592896.html,54,6000,元/月,红莲南里,整租
5c715239397be4c5251a857c,1,2,瀛海,北京,大兴,590,南 北,1,近地铁 集中供暖 新上,兴海园 2室1厅 3800元,39.770511,2室1厅1卫,116.457814,https://m.lianjia.com/chuzu/bj/zufang/BJ2194917395129171968.html,97,3800,元/月,兴海园,整租
5c72ae49397be4c5251e2d91,2,3,奥林匹克公园,北京,朝阳,269,东,1,近地铁,天居园 3室1厅 11000元,40.044807,3室1厅2卫,116.42022,https://m.lianjia.com/chuzu/bj/zufang/BJ2168971375170297856.html,133,11000,元/月,天居园,整租
5c7156a4397be4c5251a9376,1,2,枣园,北京,大兴,574,南 北,1,近地铁 集中供暖 新上 随时看房,滨河西里 2室1厅 3600元,39.756539,2室1厅1卫,116.346109,https://m.lianjia.com/chuzu/bj/zufang/BJ2198529553373609984.html,59,3600,元/月,滨河西里,整租
5c7124fe397be4c52519f94b,1,1,车公庄,北京,西城,8,北,1,近地铁 精装 集中供暖 新上 随时看房,整租 · 车公庄北里 1室1厅 8600元,39.940291,1室1厅1卫,116.353434,https://m.lianjia.com/chuzu/bj/zufang/BJ2193451298991644672.html,68,8600,元/月,车公庄北里,整租
5c714f5a397be4c5251a7789,1,2,临河里,北京,通州,366,南,1,新上,金隅通和园 2室1厅 4000元,39.882066,2室1厅1卫,116.709093,https://m.lianjia.com/chuzu/bj/zufang/BJ2196915815519879168.html,83,4000,元/月,金隅通和园,整租
5c714943397be4c5251a5a05,1,2,洋桥,北京,丰台,555,南 北,1,近地铁 精装 集中供暖,整租 ·   北京南站 一层精装一居室 交通便利,39.868822,2室1厅1卫,116.388558,https://m.lianjia.com/chuzu/bj/zufang/BJ2168735221946785792.html,50,5200,元/月,洋桥北里,整租
5c72b87c397be4c5251e46fc,1,2,三元桥,北京,朝阳,832,东南,1,近地铁 精装 集中供暖 新上 随时看房,整租 ·   金星园高楼层精装两居 临地铁机场快轨 看房方便,39.973094,2室1厅1卫,116.462116,https://m.lianjia.com/chuzu/bj/zufang/BJ2198530152227946496.html,99,13800,元/月,金星园,整租
5c715e57397be4c5251aa867,1,2,滨河西区,北京,门头沟,,东南,1,随时看房,迎晖北苑 2室1厅 2500元,39.926379,2室1厅1卫,116.125988,https://m.lianjia.com/chuzu/bj/zufang/BJ2141205194309386240.html,62,2500,元/月,迎晖北苑,整租
5c7135cb397be4c5251a17eb,1,2,双井,北京,朝阳,819,东,1,近地铁 集中供暖 随时看房,国贸 苹果社区北区 110平东向两居   随时起租,39.905624,2室1厅1卫,116.476546,https://m.lianjia.com/chuzu/bj/zufang/BJ2126558557855301632.html,112,9200,元/月,苹果社区北区,整租
5c714822397be4c5251a547f,2,3,太平桥,北京,丰台,700,南 北,2,近地铁 精装 集中供暖 双卫生间 随时看房,整租 · 威尔夏大道 3室2厅 16500元,39.88657,3室2厅2卫,116.325575,https://m.lianjia.com/chuzu/bj/zufang/BJ2102906699223670784.html,163,16500,元/月,威尔夏大道,整租
5c715e75397be4c5251aa929,1,1,城子,北京,门头沟,,南,1,集中供暖 随时看房,整租 ·   向东楼一居室 干净 中楼层 采光好 可拎包入住,39.944378,1室1厅1卫,116.112248,https://m.lianjia.com/chuzu/bj/zufang/BJ2173097818997669888.html,43,2600,元/月,向东楼小区,整租
5c7140a3397be4c5251a305c,1,1,甘家口,北京,海淀,725,南 北,1,近地铁 精装 集中供暖 随时看房,整租 ·  航天桥 花园桥 南北通透正规一居室，干净整洁,39.932102,1室1厅1卫,116.317018,https://m.lianjia.com/chuzu/bj/zufang/BJ2171549638241288192.html,54,6200,元/月,西三环北路86号院,整租
5c715d18397be4c5251aa515,3,4,长阳,北京,房山,,南 北,2,精装 随时看房,整租 · 靠山居艺墅北区 4室2厅 12000元,39.812435,4室2厅3卫,116.22017,https://m.lianjia.com/chuzu/bj/zufang/BJ2058650127433998336.html,195,12000,元/月,靠山居艺墅北区,整租
5c72b4cd397be4c5251e3dd8,1,2,管庄,北京,朝阳,1053,南 北,1,集中供暖,整租 · 管庄西里 2室1厅 5500元,39.921447,2室1厅1卫,116.594761,https://m.lianjia.com/chuzu/bj/zufang/BJ2102024607212249088.html,58,5500,元/月,管庄西里,整租
5c71380d397be4c5251a1d2d,1,2,望京,北京,朝阳,1029,东,1,近地铁 精装 集中供暖 随时看房,整租 · 南湖中园一区 2室1厅 8800元,40.008959,2室1厅1卫,116.468477,https://m.lianjia.com/chuzu/bj/zufang/BJ2161303252514381824.html,75,8800,元/月,南湖中园一区,整租
5c7134ad397be4c5251a14bf,1,2,常营,北京,朝阳,543,南,1,近地铁 精装 集中供暖 新上 随时看房,整租 · 房屋客厅卧室朝南向，业主诚心出租,39.935758,2室1厅1卫,116.58468,https://m.lianjia.com/chuzu/bj/zufang/BJ2161564277104705536.html,78,7200,元/月,苹果派,整租
5c7152b8397be4c5251a87ef,1,2,枣园,北京,大兴,42,东南 西北,1,近地铁 集中供暖 随时看房,清源西里 2室1厅 4200元,39.749733,2室1厅1卫,116.342088,https://m.lianjia.com/chuzu/bj/zufang/BJ2135989825755684864.html,60,4200,元/月,清源西里,整租
5c713814397be4c5251a1d40,3,4,太阳宫,北京,朝阳,184,南 北,2,近地铁 精装 集中供暖 随时看房,整租 · 火星园大三居，空房，装修保持好，随时起租,39.977923,4室2厅3卫,116.450729,https://m.lianjia.com/chuzu/bj/zufang/BJ2161427859506200576.html,218,27500,元/月,火星园,整租
5c714173397be4c5251a3455,1,1,西北旺,北京,海淀,817,南,1,近地铁 随时看房,景和园 1室1厅 5600元,40.055525,1室1厅1卫,116.272246,https://m.lianjia.com/chuzu/bj/zufang/BJ2173756355729694720.html,52,5600,元/月,景和园,整租
5c72aee8397be4c5251e2f33,1,3,北苑,北京,朝阳,,南,1,精装 集中供暖 随时看房,整租 · 筑华年全南三居 精装修 高楼层采光好 拎包入住,40.043409,3室1厅1卫,116.432802,https://m.lianjia.com/chuzu/bj/zufang/BJ2147038874793148416.html,91,8000,元/月,筑华年,整租
5c715b24397be4c5251aa1d0,1,3,长阳,北京,房山,189,南 北,1,近地铁 精装 集中供暖 随时看房,整租 · 芭蕾雨悦都南区 3室1厅 4800元,39.766293,3室1厅1卫,116.193275,https://m.lianjia.com/chuzu/bj/zufang/BJ2193432751880290304.html,89,4800,元/月,芭蕾雨悦都南区,整租
5c714b4d397be4c5251a63c4,1,1,杨庄,北京,石景山,1148,北,0,集中供暖 随时看房,整租 · 西现代城北向开间，精装，全齐，电梯直达，随时入住,39.931247,1室0厅1卫,116.196292,https://m.lianjia.com/chuzu/bj/zufang/BJ2151365480613953536.html,96,3800,元/月,西现代城,整租
5c714b0d397be4c5251a629e,2,3,杨庄,北京,石景山,,南 北,2,集中供暖,茂华景公院 3室2厅 13500元,39.924684,3室2厅2卫,116.206157,https://m.lianjia.com/chuzu/bj/zufang/BJ2192447192663597056.html,142,13500,元/月,茂华景公院,整租
5c71450c397be4c5251a45a7,1,2,马家堡,北京,丰台,12,南 北,1,近地铁 精装 集中供暖 新上 随时看房,整租 · 马家堡西里 2室1厅 6000元,39.862204,2室1厅1卫,116.382561,https://m.lianjia.com/chuzu/bj/zufang/BJ2198139695501164544.html,62,6000,元/月,马家堡西里,整租
5c713fb4397be4c5251a2bb8,1,2,万寿路,北京,海淀,623,东,1,近地铁 精装 集中供暖 新上 随时看房,整租 · 万寿路甲15号院五区 2室1厅 9500元,39.924355,2室1厅1卫,116.300248,https://m.lianjia.com/chuzu/bj/zufang/BJ2180371446567026688.html,81,9500,元/月,万寿路甲15号院五区,整租
5c7145dc397be4c5251a4986,1,3,科技园区,北京,丰台,1155,南 北,2,近地铁 精装 新上 随时看房,整租 ·   看丹桥电梯房三居，精装修，南北通透！,39.845229,3室2厅1卫,116.289273,https://m.lianjia.com/chuzu/bj/zufang/BJ2196821488131653632.html,106,9000,元/月,泽信公馆,整租
5c714322397be4c5251a3cab,2,3,皂君庙,北京,海淀,,南 北,2,精装 集中供暖 双卫生间,整租 · 皂君庙14号院 3室2厅 16000元,39.966944,3室2厅2卫,116.344572,https://m.lianjia.com/chuzu/bj/zufang/BJ2190581233535426560.html,152,16000,元/月,皂君庙14号院,整租
5c714119397be4c5251a32a6,1,1,牡丹园,北京,海淀,123,东 北,1,近地铁 精装 集中供暖 随时看房,整租 · 牡丹园健德门附近花园公寓精装一居，有钥匙，随时可看,39.983461,1室1厅1卫,116.377339,https://m.lianjia.com/chuzu/bj/zufang/BJ2132406767802925056.html,65,7500,元/月,花园公寓,整租
5c715bee397be4c5251aa424,2,3,阎村,北京,房山,,南 北,1,精装 双卫生间 随时看房,整租 · 绿城百合公寓南北通透顶层复式，干净整洁拎包入住。,39.715035,3室1厅2卫,116.077893,https://m.lianjia.com/chuzu/bj/zufang/BJ2144178420979081216.html,133,3800,元/月,绿城百合公寓栖霞苑,整租
5c72b361397be4c5251e3a9c,1,1,定福庄,北京,朝阳,767,南,0,近地铁 精装 集中供暖 新上,整租 ·   褡裢坡优质开间 户型方正 采光好,39.927447,1室0厅1卫,116.564943,https://m.lianjia.com/chuzu/bj/zufang/BJ2194923969902288896.html,52,4700,元/月,美然动力A3区,整租
5c7143a2397be4c5251a3f08,1,1,知春路,北京,海淀,377,东,1,近地铁 精装,整租 · 锦秋知春 1室1厅 11000元,39.980297,1室1厅1卫,116.355878,https://m.lianjia.com/chuzu/bj/zufang/BJ2166458600200355840.html,88,11000,元/月,锦秋知春,整租
5c715167397be4c5251a818a,1,1,昌平其它,北京,昌平,,南,1,精装 随时看房,整租 · 沙河地质研究所家属楼精装修一居室，家具家电齐全,40.129939,1室1厅1卫,116.264835,https://m.lianjia.com/chuzu/bj/zufang/BJ2068515583351062528.html,35,2600,元/月,沙河地质研究院家属楼,整租
5c712eb3397be4c5251a0313,1,1,木樨地,北京,西城,,东,1,集中供暖 随时看房,白云路七号院，精装修温馨一居室。,39.904437,1室1厅1卫,116.34816,https://m.lianjia.com/chuzu/bj/zufang/BJ2141068063049515008.html,41,5800,元/月,白云路七号院,整租
5c715e55397be4c5251aa859,1,2,石门营,北京,门头沟,126,南,1,近地铁 随时看房,整租 ·  石门营新区五区价格能谈看房方便。,39.893222,2室1厅1卫,116.107481,https://m.lianjia.com/chuzu/bj/zufang/BJ2114418869467611136.html,64,2600,元/月,石门营新区五区,整租
5c715833397be4c5251a9a3e,2,2,亦庄,北京,亦庄开发区,233,北,2,近地铁 集中供暖,林肯公园二期C区 4房间2卫 8000元,39.809567,4房间2卫,116.497855,https://m.lianjia.com/chuzu/bj/zufang/BJ2179014527440928768.html,97,8000,元/月,林肯公园二期C区,整租
5c72b061397be4c5251e330b,1,2,常营,北京,朝阳,469,西 北,1,近地铁 精装,整租 ·   北辰福第  全齐两居 拎包入住,39.936064,2室1厅1卫,116.608355,https://m.lianjia.com/chuzu/bj/zufang/BJ2123770103320281088.html,81,6600,元/月,北辰福第二号院,整租
5c715b91397be4c5251aa318,1,1,良乡,北京,房山,505,南,1,近地铁 集中供暖 新上,整租 · 旭辉E天地 2房间1卫 2800元 跃层,39.728172,2房间1卫,116.175752,https://m.lianjia.com/chuzu/bj/zufang/BJ2178753219331620864.html,38,2800,元/月,旭辉E天地,整租
5c713fd8397be4c5251a2c62,2,4,万柳,北京,海淀,774,东南 北,1,近地铁 精装 集中供暖 双卫生间 新上 随时看房,整租 ·    万柳中关村世纪城苏州桥 锋尚国际 精装4居室,39.9679,4室1厅2卫,116.306359,https://m.lianjia.com/chuzu/bj/zufang/BJ2197592886344949760.html,155,25000,元/月,锋尚国际,整租
5c71510c397be4c5251a7fc7,1,2,天通苑,北京,昌平,,东 西,1,集中供暖,整租 · 天通苑东一区 2室1厅 7500元,40.072066,2室1厅1卫,116.43942,https://m.lianjia.com/chuzu/bj/zufang/BJ2125077246711971840.html,84,7500,元/月,天通苑东一区,整租
5c714a64397be4c5251a5f74,1,2,苹果园,北京,石景山,379,南,1,近地铁 集中供暖 新上,苹果园小区三区 2室1厅 5300元,39.935915,2室1厅1卫,116.188426,https://m.lianjia.com/chuzu/bj/zufang/BJ2195568706241691648.html,77,5300,元/月,苹果园小区三区,整租
5c714ec2397be4c5251a74b0,3,4,潞苑,北京,通州,,南 北,3,精装 集中供暖,整租 ·   精装联排别墅，家具家电齐全，看房方便,39.944456,4室3厅3卫,116.685781,https://m.lianjia.com/chuzu/bj/zufang/BJ2120172295988723712.html,207,15000,元/月,尚东庭,整租
5c72b9fd397be4c5251e4af0,2,2,双井,北京,朝阳,643,西,1,近地铁 精装 集中供暖 双卫生间,整租 ·   近地铁 办公房 可注册 保养好 稳定长租 免中介费,39.8981,3房间2卫,116.476134,https://m.lianjia.com/chuzu/bj/zufang/BJ2153505209144852480.html,63,14000,元/月,首城国际中心,整租
5c713475397be4c5251a13fc,1,1,甜水园,北京,朝阳,385,南,1,近地铁 精装 集中供暖,整租 · 秀水园 1室1厅 5600元,39.93403,1室1厅1卫,116.484508,https://m.lianjia.com/chuzu/bj/zufang/BJ2191913407366832128.html,45,5600,元/月,秀水园,整租
5c7143a3397be4c5251a3f0d,1,1,公主坟,北京,海淀,1047,南,1,近地铁 精装 集中供暖 随时看房,整租 · 新华联国际 2房间1卫 11000元 跃层,39.917893,2房间1卫,116.309909,https://m.lianjia.com/chuzu/bj/zufang/BJ2166546037010079744.html,39,11000,元/月,新华联国际,整租
5c7143b9397be4c5251a3f7c,2,3,西三旗,北京,海淀,825,南 北,2,精装 双卫生间,整租 · 枫丹丽舍 3室2厅 12000元,40.069842,3室2厅2卫,116.369475,https://m.lianjia.com/chuzu/bj/zufang/BJ2175021467899527168.html,145,12000,元/月,枫丹丽舍,整租
5c7155d3397be4c5251a9141,1,3,大兴其它,北京,大兴,,南 北,1,集中供暖 随时看房,格林云墅 3室1厅 3500元,39.714557,3室1厅1卫,116.407943,https://m.lianjia.com/chuzu/bj/zufang/BJ2132443645557874688.html,89,3500,元/月,格林云墅,整租
5c7124cd397be4c52519f904,1,1,木樨地,北京,西城,719,东,1,近地铁 集中供暖 新上 随时看房,整租 · 汽北小区 1室1厅 6600元,39.909325,1室1厅1卫,116.348211,https://m.lianjia.com/chuzu/bj/zufang/BJ2196970460816875520.html,56,6600,元/月,汽北小区,整租
5c715e7c397be4c5251aa936,1,3,石门营,北京,门头沟,,南,1,随时看房,云泽嘉苑 3室1厅 4000元,39.896688,3室1厅1卫,116.121677,https://m.lianjia.com/chuzu/bj/zufang/BJ2176060349051043840.html,81,4000,元/月,云泽嘉苑,整租
5c714088397be4c5251a2fce,1,1,五道口,北京,海淀,87,西,0,近地铁 随时看房,华清嘉园 1室0厅 7300元,39.996907,1室0厅1卫,116.343714,https://m.lianjia.com/chuzu/bj/zufang/BJ2149790489069486080.html,37,7300,元/月,华清嘉园,整租
5c714be0397be4c5251a669f,1,2,梨园,北京,通州,,南 北,1,集中供暖 新上,桃花岛 2室1厅 4500元,39.873868,2室1厅1卫,116.665897,https://m.lianjia.com/chuzu/bj/zufang/BJ2196865833568321536.html,70,4500,元/月,桃花岛,整租
5c714784397be4c5251a5188,1,1,岳各庄,北京,丰台,,南,1,随时看房,第七街区 南向一居室 大开间 随时可看房,39.888524,1室1厅1卫,116.28512,https://m.lianjia.com/chuzu/bj/zufang/BJ2137545217040465920.html,59,4500,元/月,第七街区,整租
5c7150c9397be4c5251a7e84,2,3,天通苑,北京,昌平,,南 北,2,集中供暖 双卫生间 随时看房,整租 · 天通苑东一区 3室2厅 7500元 跃层,40.072066,3室2厅2卫,116.43942,https://m.lianjia.com/chuzu/bj/zufang/BJ2168811565006979072.html,124,7500,元/月,天通苑东一区,整租
5c72b26e397be4c5251e383c,1,3,东坝,北京,朝阳,,南 北,1,集中供暖,红松园北里2号院 3室1厅 6000元,39.972841,3室1厅1卫,116.559856,https://m.lianjia.com/chuzu/bj/zufang/BJ2145339663425486848.html,101,6000,元/月,红松园北里2号院,整租
5c713150397be4c5251a0834,1,2,亚运村,北京,朝阳,254,东 东南,1,近地铁 集中供暖 随时看房,整租 · 安慧北里逸园 2室1厅 8300元,40.008585,2室1厅1卫,116.421876,https://m.lianjia.com/chuzu/bj/zufang/BJ2193313290485514240.html,83,8300,元/月,安慧北里逸园,整租
5c712d3b397be4c5251a0115,1,2,金融街,北京,西城,401,南,1,新上,头发胡同 2室1厅 6500元,39.908815,2室1厅1卫,116.378016,https://m.lianjia.com/chuzu/bj/zufang/BJ2197066650812162048.html,32,6500,元/月,头发胡同,整租
5c72b6f4397be4c5251e4341,3,3,建国门外,北京,朝阳,660,东 南 西 北,1,近地铁 精装 集中供暖,整租 ·  嘉华世纪 南北通透两层复式带空中花园 精装修,39.911554,3室1厅3卫,116.447031,https://m.lianjia.com/chuzu/bj/zufang/BJ1967782834081112064.html,214,79000,元/月,嘉华世纪公寓,整租
5c7149ec397be4c5251a5d35,1,1,卢沟桥,北京,丰台,,南 北,1,精装 集中供暖,整租 · 新月家园 1室1厅 4000元,39.85183,1室1厅1卫,116.241953,https://m.lianjia.com/chuzu/bj/zufang/BJ2178910370297815040.html,70,4000,元/月,新月家园,整租
5c711a05397be4c52519f075,1,1,左安门,北京,东城,246,东,1,近地铁 集中供暖 随时看房,整租 · 东四块玉北街 1室1厅 4700元,39.888924,1室1厅1卫,116.430723,https://m.lianjia.com/chuzu/bj/zufang/BJ2132360199066370048.html,47,4700,元/月,东四块玉北街,整租
5c7143ac397be4c5251a3f3c,1,2,田村,北京,海淀,,东 西,1,精装 集中供暖 随时看房,整租 · 永定路1号院 2室1厅 5700元,39.931256,2室1厅1卫,116.270772,https://m.lianjia.com/chuzu/bj/zufang/BJ2171000481651376128.html,50,5700,元/月,永定路1号院,整租
5c715953397be4c5251a9e70,1,3,顺义城,北京,顺义,,南 北,1,集中供暖 随时看房,整租 · 裕龙西区 3室1厅 5500元,40.133443,3室1厅1卫,116.674754,https://m.lianjia.com/chuzu/bj/zufang/BJ2106384556021260288.html,117,5500,元/月,裕龙西区,整租
5c71368d397be4c5251a19ac,1,1,华威桥,北京,朝阳,724,东,1,近地铁 集中供暖 随时看房,整租 · 南新园 1室1厅 4600元,39.874867,1室1厅1卫,116.481385,https://m.lianjia.com/chuzu/bj/zufang/BJ2141864479632400384.html,51,4600,元/月,南新园,整租
5c714325397be4c5251a3cb7,3,5,玉泉路,北京,海淀,,南 北,3,精装 集中供暖,整租 · 长安山麓 5室3厅 26000元,39.92932,5室3厅3卫,116.245126,https://m.lianjia.com/chuzu/bj/zufang/BJ2191333793166524416.html,179,26000,元/月,长安山麓,整租
5c7129bf397be4c52519ff6e,1,2,马连道,北京,西城,251,西南 北,1,近地铁 集中供暖,马连道中里 2室1厅 7000元,39.893507,2室1厅1卫,116.336918,https://m.lianjia.com/chuzu/bj/zufang/BJ2138466027904966656.html,75,7000,元/月,马连道中里,整租
5c72b172397be4c5251e35ba,1,1,朝青,北京,朝阳,192,南,1,近地铁,整租 · 青年汇佳园 1室1厅 5800元,39.927428,1室1厅1卫,116.521988,https://m.lianjia.com/chuzu/bj/zufang/BJ2156947855985098752.html,44,5800,元/月,青年汇佳园,整租
5c7151c5397be4c5251a833d,1,1,回龙观,北京,昌平,1148,东,1,精装 集中供暖 随时看房,整租 · 上北鑫座 2房间1卫 6800元,40.085341,2房间1卫,116.339803,https://m.lianjia.com/chuzu/bj/zufang/BJ2170920337024491520.html,66,6800,元/月,上北鑫座,整租
5c72b14e397be4c5251e3547,4,4,朝青,北京,朝阳,532,南 北,2,近地铁,星河湾 4室2厅 42000元,39.934036,4室2厅4卫,116.529843,https://m.lianjia.com/chuzu/bj/zufang/BJ2162995098777034752.html,256,42000,元/月,星河湾,整租
5c713551397be4c5251a16b3,1,2,太阳宫,北京,朝阳,176,西,1,近地铁 精装 集中供暖 随时看房,整租 ·  地铁十号线太阳宫站新纪家园两居眼镜户型全明格局,39.979209,2室1厅1卫,116.456721,https://m.lianjia.com/chuzu/bj/zufang/BJ2109364328355602432.html,89,9000,元/月,新纪家园,整租
5c714b15397be4c5251a62c0,1,1,鲁谷,北京,石景山,,东,1,集中供暖,北重西厂 1室1厅 4000元,39.898977,1室1厅1卫,116.236519,https://m.lianjia.com/chuzu/bj/zufang/BJ2097082932647690240.html,42,4000,元/月,北重西厂,整租
5c71274a397be4c52519fc43,1,2,西四,北京,西城,556,南 北,1,近地铁 精装 集中供暖 随时看房,整租 ·   整租  航空胡同  南北通透 两居室,39.945346,2室1厅1卫,116.381079,https://m.lianjia.com/chuzu/bj/zufang/BJ2190551638241189888.html,58,7500,元/月,航空胡同11号院,整租
5c714afe397be4c5251a6255,1,2,苹果园,北京,石景山,625,东 西,1,近地铁 精装 集中供暖 随时看房,整租 · 天宇广场旁边东西向中间层两居 长期出租,39.936458,2室1厅1卫,116.202321,https://m.lianjia.com/chuzu/bj/zufang/BJ2166646061404528640.html,55,4300,元/月,苹果园南路甲23号院,整租
5c715b51397be4c5251aa25b,1,1,良乡,北京,房山,452,西,1,近地铁 精装 集中供暖 新上 随时看房,整租 ·   远洋新仕界 39平 精装修，交通便利,39.731011,2房间1卫,116.18749,https://m.lianjia.com/chuzu/bj/zufang/BJ2194711502366179328.html,40,3200,元/月,远洋新仕界,整租
5c71549f397be4c5251a8d30,1,3,旧宫,北京,大兴,974,南 北,2,集中供暖 随时看房,整租 · 灵秀山庄 3室2厅 6000元,39.806206,3室2厅1卫,116.466526,https://m.lianjia.com/chuzu/bj/zufang/BJ2121024329277259776.html,98,6000,元/月,灵秀山庄,整租
5c72b1ca397be4c5251e36a3,1,2,朝阳公园,北京,朝阳,898,南,2,近地铁 精装 集中供暖,整租 ·   东润枫景两居室 随时起租 拎包入住,39.961933,2室2厅1卫,116.501885,https://m.lianjia.com/chuzu/bj/zufang/BJ2162141562509991936.html,107,9500,元/月,东润枫景三期,整租
5c71510a397be4c5251a7fbc,1,1,东关,北京,昌平,274,南,1,近地铁 精装 集中供暖 随时看房,整租 · 红石座 44.54㎡ 一层临街底商 可以起明火,40.225828,2房间1卫,116.274117,https://m.lianjia.com/chuzu/bj/zufang/BJ2120079494856581120.html,45,5000,元/月,红石座,整租
5c72b85b397be4c5251e4693,3,3,三元桥,北京,朝阳,524,东 西 北,1,近地铁,SOHO北京公馆 3室1厅 60000元,39.954426,3室1厅3卫,116.461498,https://m.lianjia.com/chuzu/bj/zufang/BJ2161457677710917632.html,296,60000,元/月,SOHO北京公馆,整租
5c72b189397be4c5251e3605,3,5,朝青,北京,朝阳,,南 北,2,随时看房,整租 · 逸翠园 5室2厅 23000元,39.950025,5室2厅3卫,116.529599,https://m.lianjia.com/chuzu/bj/zufang/BJ2158397200818765824.html,152,23000,元/月,逸翠园,整租
5c715ef4397be4c5251aabb2,1,2,滨河西区,北京,门头沟,,南,1,新上 随时看房,迎晖北苑 2室1厅 2500元,39.926379,2室1厅1卫,116.125988,https://m.lianjia.com/chuzu/bj/zufang/BJ2198562129307770880.html,62,2500,元/月,迎晖北苑,整租
5c71465f397be4c5251a4bdb,2,4,科技园区,北京,丰台,403,南 北,2,近地铁 精装 集中供暖 双卫生间 随时看房,整租 · 中海九号公馆平层小四居 有车位 家具家电齐全随时签约,39.823538,4室2厅2卫,116.302098,https://m.lianjia.com/chuzu/bj/zufang/BJ2021528774319022080.html,172,23000,元/月,中海九号公馆,整租
5c72b5f9397be4c5251e40c3,1,2,健翔桥,北京,朝阳,830,东 西,1,近地铁 集中供暖 随时看房,整租 ·  中科院电梯两居室 看房有钥匙 报价6800元,39.991903,2室1厅1卫,116.390657,https://m.lianjia.com/chuzu/bj/zufang/BJ2190426953226928128.html,61,6800,元/月,华严北里中科院,整租
5c715eae397be4c5251aaa1c,1,3,城子,北京,门头沟,,南 北,1,精装 随时看房,整租 ·   中楼层，3居室，家具家电齐全，拎包即住,39.949921,3室1厅1卫,116.111318,https://m.lianjia.com/chuzu/bj/zufang/BJ2122353784108883968.html,116,5200,元/月,绿岛家园,整租
5c711b78397be4c52519f254,1,1,和平里,北京,朝阳,171,东 西,1,近地铁 集中供暖 随时看房,和平里七区 1室1厅 6500元,39.966824,1室1厅1卫,116.427853,https://m.lianjia.com/chuzu/bj/zufang/BJ2180906293265432576.html,47,6500,元/月,和平里七区,整租
5c71324d397be4c5251a0bee,1,1,朝青,北京,朝阳,1083,东北,1,近地铁 精装 集中供暖 随时看房,整租 · 国美第一城3号院 1室1厅 6700元,39.94004,1室1厅1卫,116.521774,https://m.lianjia.com/chuzu/bj/zufang/BJ2189824724060872704.html,60,6700,元/月,国美第一城3号院,整租
5c714205397be4c5251a373a,1,1,西直门,北京,海淀,,南,0,集中供暖 随时看房,文慧园56号公寓 1室0厅 7200元,39.957757,1室0厅1卫,116.364538,https://m.lianjia.com/chuzu/bj/zufang/BJ2153300779950415872.html,55,7200,元/月,文慧园56号公寓,整租
5c714a37397be4c5251a5e93,1,1,玉泉营,北京,丰台,990,南,1,近地铁 集中供暖 新上 随时看房,中景理想家 1室1厅 5300元,39.858272,1室1厅1卫,116.322924,https://m.lianjia.com/chuzu/bj/zufang/BJ2198303104896598016.html,53,5300,元/月,中景理想家,整租
5c7142a3397be4c5251a3a43,1,2,清河,北京,海淀,,南,1,精装 集中供暖 随时看房,整租 · 上地清河五彩城全新精装南北两居室,40.035114,2室1厅1卫,116.346988,https://m.lianjia.com/chuzu/bj/zufang/BJ2141816724813512704.html,53,5800,元/月,毛纺厂南小区,整租
5c715872397be4c5251a9b8a,1,2,顺义城,北京,顺义,,南 北,1,集中供暖 新上 随时看房,整租 ·   裕龙三区，隔断两居，随时入住。,40.129754,2室1厅1卫,116.678194,https://m.lianjia.com/chuzu/bj/zufang/BJ2196132760312627200.html,70,3500,元/月,裕龙三区,整租
5c7132b2397be4c5251a0d65,2,2,三元桥,北京,朝阳,434,南 北,2,近地铁 集中供暖 双卫生间 新上 随时看房,整租 · UHN国际村大面积两居室，安静不临街,39.973905,2室2厅2卫,116.456795,https://m.lianjia.com/chuzu/bj/zufang/BJ2165646710141878272.html,140,18000,元/月,UHN国际村,整租
5c714563397be4c5251a4736,1,1,方庄,北京,朝阳,1,西,1,近地铁 随时看房,gogo新世代 1室1厅 5400元,39.872461,1室1厅1卫,116.429293,https://m.lianjia.com/chuzu/bj/zufang/BJ2192595995244896256.html,46,5400,元/月,gogo新世代,整租
5c71514d397be4c5251a8102,1,1,立水桥,北京,朝阳,745,南,1,近地铁 精装 集中供暖 随时看房,整租 · 润枫欣尚 2房间1卫 6000元,40.063693,2房间1卫,116.419561,https://m.lianjia.com/chuzu/bj/zufang/BJ2168810348667748352.html,70,6000,元/月,润枫欣尚,整租
5c713018397be4c5251a04dd,1,2,马连道,北京,西城,948,西南,1,近地铁 集中供暖 新上,常青藤嘉园 2室1厅 8500元,39.885855,2室1厅1卫,116.340034,https://m.lianjia.com/chuzu/bj/zufang/BJ2194792356627628032.html,96,8500,元/月,常青藤嘉园,整租
5c71459d397be4c5251a484c,2,2,马家堡,北京,丰台,417,南 北,1,近地铁 精装 集中供暖 双卫生间 新上,整租 · 丽水园 2室1厅 8600元,39.848129,2室1厅2卫,116.379698,https://m.lianjia.com/chuzu/bj/zufang/BJ2198301767257554944.html,105,8600,元/月,丽水园,整租
5c72ba74397be4c5251e4c4d,1,2,双桥,北京,朝阳,,南 北,1,精装 集中供暖 新上,整租 · 东一时区 2室1厅 6000元,39.905006,2室1厅1卫,116.612765,https://m.lianjia.com/chuzu/bj/zufang/BJ2199303465518235648.html,89,6000,元/月,东一时区,整租
5c714a72397be4c5251a5fbd,1,2,鲁谷,北京,石景山,,东 西,1,集中供暖 新上 随时看房,五芳园 2室1厅 4000元,39.905003,2室1厅1卫,116.233846,https://m.lianjia.com/chuzu/bj/zufang/BJ2196329414550093824.html,58,4000,元/月,五芳园,整租
5c714289397be4c5251a39bf,1,2,马连洼,北京,海淀,212,南 北,2,近地铁,裕祺隆园 2室2厅 13000元,40.019924,2室2厅1卫,116.27885,https://m.lianjia.com/chuzu/bj/zufang/BJ2126025675952898048.html,88,13000,元/月,裕祺隆园,整租
5c72ae3f397be4c5251e2d73,1,2,奥林匹克公园,北京,朝阳,,南 北,1,精装 集中供暖 随时看房,整租 · 林萃路10号院   将装修、可以短租、临近公园,40.01678,2室1厅1卫,116.381113,https://m.lianjia.com/chuzu/bj/zufang/BJ2145505718135169024.html,62,7000,元/月,林萃路10号院,整租
5c714c2b397be4c5251a6818,1,3,通州北苑,北京,朝阳,1061,南 北,1,精装 集中供暖,整租 · 世纪星城三期 3室1厅 6100元,39.901842,3室1厅1卫,116.640671,https://m.lianjia.com/chuzu/bj/zufang/BJ2193210817699389440.html,105,6100,元/月,世纪星城三期,整租
5c71582f397be4c5251a9a24,1,2,亦庄,北京,亦庄开发区,233,西北,1,近地铁 集中供暖,林肯公园二期C区 3房间1卫 8500元,39.809567,3房间1卫,116.497855,https://m.lianjia.com/chuzu/bj/zufang/BJ2174360908422725632.html,94,8500,元/月,林肯公园二期C区,整租
5c714e10397be4c5251a7139,3,4,武夷花园,北京,通州,319,东南 西北,1,近地铁 集中供暖 随时看房,富力运河十号 5房间3卫 22000元,39.910567,5房间3卫,116.692994,https://m.lianjia.com/chuzu/bj/zufang/BJ2108465473958969344.html,242,22000,元/月,富力运河十号,整租
5c714387397be4c5251a3e8f,2,3,白石桥,北京,海淀,,东 南,2,精装 集中供暖 双卫生间,整租 · 皂君庙 农科院 西直门 交通大学 财经大学 可居家,39.960325,3室2厅2卫,116.340795,https://m.lianjia.com/chuzu/bj/zufang/BJ2152826265621766144.html,148,15500,元/月,富海中心,整租
5c7142bb397be4c5251a3aac,1,2,清河,北京,海淀,954,南 北,1,集中供暖 随时看房,整租 ·  清缘里中区 正规两居 家具家电齐全 看房随时,40.035119,2室1厅1卫,116.362306,https://m.lianjia.com/chuzu/bj/zufang/BJ2151975059206709248.html,76,6300,元/月,清缘里中区,整租
5c7129d8397be4c52519ff8c,1,2,月坛,北京,西城,161,南,1,近地铁 集中供暖,三里河三区 2室1厅 7500元,39.916205,2室1厅1卫,116.348013,https://m.lianjia.com/chuzu/bj/zufang/BJ2146277383500464128.html,66,7500,元/月,三里河三区,整租
5c714755397be4c5251a509f,1,1,马家堡,北京,丰台,225,北,0,近地铁 精装 集中供暖 新上,整租 · 城南大道 1房间1卫 5500元,39.838257,1房间1卫,116.375715,https://m.lianjia.com/chuzu/bj/zufang/BJ2197677193340403712.html,44,5500,元/月,城南大道,整租
5c72bcf5397be4c5251e5271,2,4,亚运村,北京,朝阳,12,东南,2,近地铁 集中供暖 双卫生间 随时看房,整租 · 天创世缘两居室 可办公 交通便利 看房方便,40.009768,4室2厅2卫,116.411174,https://m.lianjia.com/chuzu/bj/zufang/BJ2152047732443840512.html,206,11000,元/月,天创世缘,整租
5c7157ba397be4c5251a9827,1,3,顺义其它,北京,顺义,,南 北,1,集中供暖,整租 ·   馨港三区 精装三居 干净整洁 拎包入住,40.037646,3室1厅1卫,116.675955,https://m.lianjia.com/chuzu/bj/zufang/BJ2167991941558706176.html,128,4500,元/月,馨港庄园三区,整租
5c712429397be4c52519f83a,0,1,东四,北京,东城,109,南,0,近地铁,东四十一条 1室0厅 2300元,39.940483,1室0厅0卫,116.429248,https://m.lianjia.com/chuzu/bj/zufang/BJ2151288351893241856.html,12,2300,元/月,东四十一条,整租
5c7131d2397be4c5251a0a29,1,1,双井,北京,朝阳,22,南,1,近地铁 精装 集中供暖 新上 随时看房,整租 · 富力城A区 1室1厅 12000元,39.901678,1室1厅1卫,116.465491,https://m.lianjia.com/chuzu/bj/zufang/BJ2196456154606084096.html,66,12000,元/月,富力城A区,整租
5c7157a0397be4c5251a9781,1,1,后沙峪,北京,顺义,1194,北,1,精装 集中供暖,整租 · IDCITY艾迪城 2房间1卫 5600元,40.093258,2房间1卫,116.548519,https://m.lianjia.com/chuzu/bj/zufang/BJ2152182527727771648.html,45,5600,元/月,IDCITY艾迪城,整租
5c7133f7397be4c5251a1212,1,3,望京,北京,朝阳,189,东南 西南,1,近地铁 集中供暖,望京新城 3室1厅 16000元,40.002156,3室1厅1卫,116.47773,https://m.lianjia.com/chuzu/bj/zufang/BJ2163170379403894784.html,97,16000,元/月,望京新城,整租
5c72ade9397be4c5251e2ca7,2,3,安贞,北京,朝阳,364,西南,1,近地铁 精装 集中供暖 双卫生间,整租 · 国典华园，精装修，西南向大三居。稳定长租，拎包入住,39.981069,3室1厅2卫,116.417395,https://m.lianjia.com/chuzu/bj/zufang/BJ2111600941643079680.html,129,18000,元/月,国典华园,整租
5c712477397be4c52519f89a,1,1,广渠门,北京,朝阳,12,西,0,近地铁 集中供暖,整租 · 广渠门精装开间 冠城名敦道 地铁7号线,39.898397,1室0厅1卫,116.453086,https://m.lianjia.com/chuzu/bj/zufang/BJ2189576252460384256.html,64,7500,元/月,冠城名敦道,整租
5c714e38397be4c5251a71fe,2,2,潞苑,北京,通州,,南,1,双卫生间,整租 · 珠江国际城八区，南北朝向两居室,39.937078,2室1厅2卫,116.685959,https://m.lianjia.com/chuzu/bj/zufang/BJ2156975647300526080.html,122,5500,元/月,珠江国际城八区,整租
5c715832397be4c5251a9a37,1,2,良乡,北京,房山,,南 北,1,,整租 · 拱辰北大街小区，位置好，交通便利。,39.752604,2室1厅1卫,116.145449,https://m.lianjia.com/chuzu/bj/zufang/BJ2146982096072081408.html,96,3100,元/月,拱辰北大街,整租
5c712f37397be4c5251a03bf,1,2,天宁寺,北京,西城,990,南 北,1,精装 集中供暖,整租 ·    广安门 达官营 天宁寺西里 三居室锁一间出租,39.898877,2室1厅1卫,116.350008,https://m.lianjia.com/chuzu/bj/zufang/BJ2180347944321433600.html,84,6500,元/月,天宁寺西里,整租
5c715492397be4c5251a8d08,1,2,西红门,北京,大兴,,南 北,1,精装 随时看房,整租 · 鸿坤理想城派郡18号院 2室1厅 5000元,39.801868,2室1厅1卫,116.351995,https://m.lianjia.com/chuzu/bj/zufang/BJ2090970680316403712.html,92,5000,元/月,鸿坤理想城派郡18号院,整租
5c715780397be4c5251a96d0,2,2,顺义其它,北京,顺义,506,南,1,双卫生间 随时看房,整租 · 旭辉26街区 2室1厅 4500元,40.128397,2室1厅2卫,116.618165,https://m.lianjia.com/chuzu/bj/zufang/BJ2163170814763991040.html,39,4500,元/月,旭辉26街区,整租
5c714b8f397be4c5251a6504,1,2,九棵树(家乐福),北京,通州,895,南,1,近地铁 精装 集中供暖 新上,整租 · 蓝调沙龙西区 2室1厅 7000元,39.893658,2室1厅1卫,116.655952,https://m.lianjia.com/chuzu/bj/zufang/BJ2163167509459771392.html,100,7000,元/月,蓝调沙龙西区,整租
5c714de2397be4c5251a7053,1,2,通州其它,北京,通州,,东,1,随时看房,城乡世纪广场莫尔空间 3房间1卫 5200元,39.809112,3房间1卫,116.539213,https://m.lianjia.com/chuzu/bj/zufang/BJ2190461386683842560.html,56,5200,元/月,城乡世纪广场莫尔空间,整租
5c7151b0397be4c5251a82d7,2,4,北七家,北京,昌平,,南 北,2,精装 双卫生间,整租 · 墅区公寓　家具家电齐全　诚租　看房随时,40.111858,4室2厅2卫,116.416637,https://m.lianjia.com/chuzu/bj/zufang/BJ2141037150341709824.html,234,12000,元/月,王府公寓四区,整租
5c72b52a397be4c5251e3e98,1,2,和平里,北京,朝阳,500,东 西,1,近地铁 精装 集中供暖,整租 · 和平街十三区 2室1厅 9300元,39.96858,2室1厅1卫,116.432809,https://m.lianjia.com/chuzu/bj/zufang/BJ2192765212476571648.html,88,9300,元/月,和平街十三区,整租
5c72af09397be4c5251e2f9d,1,1,北苑,北京,朝阳,1033,南,0,近地铁 精装 集中供暖 随时看房,整租 · 乐想汇精装优质开间，大家多多推荐,40.05627,1房间1卫,116.445474,https://m.lianjia.com/chuzu/bj/zufang/BJ2141909174001336320.html,65,6600,元/月,乐想汇,整租
5c7140ce397be4c5251a3132,1,2,海淀北部新区,北京,海淀,,南 北,1,,整租 · 保利西山林语 2室1厅 6000元,40.043636,2室1厅1卫,116.220283,https://m.lianjia.com/chuzu/bj/zufang/BJ2193468139432312832.html,90,6000,元/月,保利西山林语,整租
5c7131be397be4c5251a09da,1,1,潘家园,北京,朝阳,216,东,1,月租 近地铁 精装 集中供暖 新上 随时看房,整租 ·    松榆西里空房短租三个月，到六月初，精装修,39.87738,1室1厅1卫,116.470683,https://m.lianjia.com/chuzu/bj/zufang/BJ2196247911849787392.html,41,3500,元/月,松榆西里,整租
5c71547b397be4c5251a8cb7,1,2,西红门,北京,大兴,1197,东南,1,新上,整租 · 鸿坤理想城礼域府 2室1厅 6000元,39.799417,2室1厅1卫,116.348786,https://m.lianjia.com/chuzu/bj/zufang/BJ2194839849905954816.html,92,6000,元/月,鸿坤理想城礼域府,整租
5c711bdf397be4c52519f2da,1,2,广渠门,北京,朝阳,901,东北,1,近地铁 集中供暖 随时看房,整租 · 幸福南里 简装两居室 随时入住,39.89084,2室1厅1卫,116.438842,https://m.lianjia.com/chuzu/bj/zufang/BJ2115151132065275904.html,66,5200,元/月,幸福南里,整租
5c72bb32397be4c5251e4ded,1,1,团结湖,北京,朝阳,206,南,1,近地铁 精装 集中供暖 新上 随时看房,整租 · 团结湖北二条 1室1厅 6300元,39.938198,1室1厅1卫,116.472485,https://m.lianjia.com/chuzu/bj/zufang/BJ2198556125304471552.html,37,6300,元/月,团结湖北二条,整租
5c715220397be4c5251a8501,1,2,天宫院,北京,大兴,235,南,1,近地铁 集中供暖 新上 随时看房,住总万科橙 2室1厅 4800元,39.694097,2室1厅1卫,116.329938,https://m.lianjia.com/chuzu/bj/zufang/BJ2197006169887735808.html,77,4800,元/月,住总万科橙,整租
5c7136c6397be4c5251a1a2f,2,3,北苑,北京,朝阳,190,南 北,1,近地铁 精装 集中供暖 双卫生间 随时看房,整租 · 华发颐园 3室1厅 12000元,40.050196,3室1厅2卫,116.422099,https://m.lianjia.com/chuzu/bj/zufang/BJ2145455216114810880.html,129,12000,元/月,华发颐园,整租
5c713485397be4c5251a1436,1,1,亚运村,北京,朝阳,302,南,1,近地铁 精装 集中供暖,整租 ·   朝南一居室，精良装修，配套齐全,39.993021,1室1厅1卫,116.415714,https://m.lianjia.com/chuzu/bj/zufang/BJ2192453345363632128.html,44,6200,元/月,安苑北里,整租
5c72ba68397be4c5251e4c22,1,1,双桥,北京,朝阳,969,西,1,近地铁 精装 集中供暖 随时看房,整租 · 中建玲珑山 2房间1卫 6000元,39.909436,2房间1卫,116.567799,https://m.lianjia.com/chuzu/bj/zufang/BJ2162059397957173248.html,67,6000,元/月,中建玲珑山,整租
5c72b72f397be4c5251e43d4,1,2,立水桥,北京,朝阳,934,东,1,集中供暖,整租 · 此房是东南的 立水桥 精装修 可长租,40.053513,3房间1卫,116.414421,https://m.lianjia.com/chuzu/bj/zufang/BJ2062240072165761024.html,89,6800,元/月,明天第一城7号院,整租
5c713fef397be4c5251a2cd1,1,3,皂君庙,北京,海淀,730,东南,1,近地铁 集中供暖 随时看房,整租 ·  大钟寺 皂君庙乙2号院 三居室 诚心出租,39.968942,3室1厅1卫,116.347678,https://m.lianjia.com/chuzu/bj/zufang/BJ2192024413262577664.html,76,9000,元/月,皂君庙乙2号院,整租
5c7123f5397be4c52519f7f7,0,1,交道口,北京,东城,415,南,0,近地铁 随时看房,整租 ·   北京市第六医院旁边安静温馨小平房,39.948631,1室0厅0卫,116.419576,https://m.lianjia.com/chuzu/bj/zufang/BJ2176544429278494720.html,16,2500,元/月,交道口北二条,整租
5c715140397be4c5251a80c5,1,2,东关,北京,昌平,836,东 西,1,近地铁 集中供暖,东关二条 2室1厅 3500元,40.227856,2室1厅1卫,116.249967,https://m.lianjia.com/chuzu/bj/zufang/BJ2163056567904378880.html,80,3500,元/月,东关二条,整租
